醫事機構代碼,醫事機構名稱,醫事機構地址,address_clean,latitude,longitude,醫事機構電話,成人口罩剩餘數,兒童口罩剩餘數,來源資料時間
592202A054,萬泰藥師藥局,嘉義市西區民族路４９４號,嘉義市西區民族路494號,23.4760059,120.4489869,(05)2168605,3888,1790,2020/09/15 21:44:46
592202A241,博愛藥局,嘉義市西區小湖里博愛路二段２７７之１號,嘉義市西區小湖里博愛路二段277–1號,23.480236,120.440159,(05)2330292,3240,585,2020/09/15 21:44:46
592202A296,秉原藥局,嘉義市西區書院里民族路７００號,嘉義市西區書院里民族路700號,23.4755677,120.4435451,(05)2285811,4572,0,2020/09/15 21:44:46
592202A330,永明藥局,嘉義市西區中山路６０８號１樓,嘉義市西區中山路608號1樓,23.4776353,120.4404679,(05)2286339,3635,659,2020/09/15 21:44:46
592202A349,力健藥局,嘉義市西區文化路５９１號,嘉義市西區文化路591號,23.4934981,120.4442817,(05)2323217,1202,1075,2020/09/15 21:44:46
592202A358,國豐藥局,嘉義市西區北興街２４５－２號１樓,嘉義市西區北興街245-2號1樓,23.4854934,120.4382935,(05)2318473,2430,1867,2020/09/15 21:44:46
592202A465,廣元藥局,嘉義市西區民安里中正路６９７號,嘉義市西區民安里中正路697號,23.4782873,120.4419914,(05)2252733,3543,1677,2020/09/15 21:44:46
592202A518,徠的安藥師藥局,嘉義市西區保安里世賢路１段６鄰５４９號,嘉義市西區保安里世賢路1段6鄰549號,23.4961785,120.4508403,(05)2318532,3464,0,2020/09/15 21:44:46
593106A011,八德藥局,新北市新莊區八德街３號２樓,新北市新莊區八德街3號2樓,25.022685,121.425618,(02)22071315,14068,1580,2020/09/15 21:44:46
593106A039,大仁藥局,新北市新莊區公園一路３２號１樓,新北市新莊區公園一路32號1樓,25.0353735,121.443547,(02)22776023,14932,1910,2020/09/15 21:44:46
593106A093,環球藥局,新北市新莊區中港路４３６號１、２樓,新北市新莊區中港路436號1、2樓,25.0510324,121.4520223,(02)29901934,5117,510,2020/09/15 21:44:46
593106A137,力源藥局,新北市新莊區復興路２段１３３號１樓,新北市新莊區復興路2段133號1樓,25.0444718,121.4571814,(02)89929919,18,27,2020/09/15 21:44:46
593106A155,日榮藥局,新北市新莊區龍安路４６１號１樓,新北市新莊區龍安路461號1樓,25.0186699,121.424838,(02)22051523,6052,1434,2020/09/15 21:44:46
593106A173,華泰藥局,新北市新莊區昌明街８０號１樓,新北市新莊區昌明街80號1樓,25.0524215,121.4550049,(02)89928500,8881,3135,2020/09/15 21:44:46
593106A182,和昌藥局,新北市新莊區中安街１５號１樓,新北市新莊區中安街15號1樓,25.0460082,121.4529883,(02)29900669,12628,678,2020/09/15 21:44:46
593106A226,詠康聯合藥局,新北市新莊區中榮街６６巷１號１樓,新北市新莊區中榮街66巷1號1樓,25.0530996,121.448613,(02)29964436,18742,1590,2020/09/15 21:44:46
593106A244,巧心藥局,新北市新莊區建中街９２號１樓,新北市新莊區建中街92號1樓,25.0367666,121.4468045,(02)22778584,5824,260,2020/09/15 21:44:46
593106A299,悅生藥局,新北市新莊區龍安路３４３－１號１樓,新北市新莊區龍安路343-1號1樓,25.0191958,121.4228151,(02)22081219,8404,1060,2020/09/15 21:44:46
593106A324,向日葵健保藥局,新北市新莊區建福路５０號１樓,新北市新莊區建福路50號1樓,25.027494,121.426452,(02)22060377,9436,1289,2020/09/15 21:44:46
593106A342,真美滿藥局,新北市新莊區幸福路７２９號２樓,新北市新莊區幸福路729號2樓,25.0490534,121.4492635,(02)29919473,11702,800,2020/09/15 21:44:46
593106A351,平安藥局,新北市新莊區民安西路６０號２樓,新北市新莊區民安西路60號2樓,25.020383,121.427195,(02)22082368,18604,504,2020/09/15 21:44:46
593106A379,輔大美康藥局,新北市新莊區中正路５１０號之１，１樓,"新北市新莊區中正路510號之1,1樓",25.0336491,121.433255,(02)29013056,1356,950,2020/09/15 21:44:46
593106A388,元大藥局,新北市新莊區富國路２０４號１、２樓,新北市新莊區富國路204號1、2樓,25.0242099,121.424704,(02)22020082,4152,1065,2020/09/15 21:44:46
593106A404,新新藥局,新北市新莊區新泰路６２號２樓,新北市新莊區新泰路62號2樓,25.034837,121.4494212,(02)29945994,12923,2083,2020/09/15 21:44:46
593106A511,明仁健保藥局,新北市新莊區民安西路１９５號１樓,新北市新莊區民安西路195號1樓,25.0151018,121.4261463,(02)22085175,17062,1030,2020/09/15 21:44:46
593106A566,一心春天藥局,新北市新莊區中和街１３號１樓、地下室,新北市新莊區中和街13號1樓、地下室,25.0434242,121.4480931,(02)89929482,5463,1305,2020/09/15 21:44:46
593106A584,記安大藥局,新北市新莊區天祥街４６號１樓,新北市新莊區天祥街46號1樓,25.028934,121.416865,(02)22095331,7680,950,2020/09/15 21:44:46
593106A600,全鎵藥局,新北市新莊區建中街２２號１樓,新北市新莊區建中街22號1樓,25.0376595,121.4492804,(02)22761550,2566,10,2020/09/15 21:44:46
593106A628,中原藥局,新北市新莊區中原路９３號１樓,新北市新莊區中原路93號1樓,25.054083,121.456308,(02)89920668,9777,190,2020/09/15 21:44:46
593106A637,薇妮藥妝藥局,新北市新莊區民安路９９號１樓,新北市新莊區民安路99號1樓,25.0252636,121.424551,(02)82010817,4435,690,2020/09/15 21:44:46
593106A646,薇妮雙鳳藥局,新北市新莊區雙鳳路２１號１樓,新北市新莊區雙鳳路21號1樓,25.026768,121.416687,(02)29076993,2465,0,2020/09/15 21:44:46
593106A655,家嘉藥局,新北市新莊區自立街１０３號１樓,新北市新莊區自立街103號1樓,25.045567,121.4553147,(02)89926488,504,0,2020/09/15 21:44:46
593106A691,大樹新莊藥局,新北市新莊區新泰路５９號１、２樓,新北市新莊區新泰路59號1、2樓,25.0340745,121.4493408,(02)22010566,2763,814,2020/09/15 21:44:46
593106A708,宏福藥局,新北市新莊區自信街５５號１樓,新北市新莊區自信街55號1樓,25.0483555,121.4550402,(02)29985225,2572,0,2020/09/15 21:44:46
593106A717,大樹幸福藥局,新北市新莊區幸福路６７２號１樓,新北市新莊區幸福路672號1樓,25.049298,121.450878,(03)4333123,2474,1974,2020/09/15 21:44:46
593106A726,良和健保藥局,新北市新莊區龍安路４９號１樓,新北市新莊區龍安路49號1樓,25.0217067,121.4153834,(02)29048157,8387,1716,2020/09/15 21:44:46
593106A735,樂家藥局,新北市新莊區中平路２７３號１樓,新北市新莊區中平路273號1樓,25.0499491,121.4447184,(02)29960723,466,432,2020/09/15 21:44:46
593106A744,永明藥局,新北市新莊區幸福路５９８號１樓,新北市新莊區幸福路598號1樓,25.0494249,121.453314,(02)89920019,2671,1440,2020/09/15 21:44:46
593106A753,宜安中西藥局,新北市新莊區龍安路２４號１樓,新北市新莊區龍安路24號1樓,25.0219441,121.414626,(02)29083318,2725,960,2020/09/15 21:44:46
593106A771,新佑康健保藥局,新北市新莊區中華路１段３５號１樓,新北市新莊區中華路1段35號1樓,25.042362,121.4529203,(02)29947490,1116,325,2020/09/15 21:44:46
593106A824,家禾藥局,新北市新莊區立信五街６號１樓,新北市新莊區立信五街6號1樓,25.051591,121.4444663,(02)29972121,2194,0,2020/09/15 21:44:46
593106A833,欣國藥局,新北市新莊區富國路５７號１樓、２樓,新北市新莊區富國路57號1樓、2樓,25.0263359,121.4194928,(02)29080958,3564,1053,2020/09/15 21:44:46
593106A842,鼎極藥局,新北市新莊區民安西路３７６號之１、之３（１樓）,新北市新莊區民安西路376號之1、之3(1樓),25.010634,121.428033,(02)22073228,10165,1339,2020/09/15 21:44:46
593106A851,躍獅新豐藥局,新北市新莊區豐年街１６號１樓,新北市新莊區豐年街16號1樓,25.0326829,121.4462346,(02)22058055,2743,568,2020/09/15 21:44:46
593106A897,陽光豐年藥局,新北市新莊區豐年街１４號１樓,新北市新莊區豐年街14號1樓,25.0327397,121.4461748,(02)22060665,1373,110,2020/09/15 21:44:46
593106A904,杏佳藥師藥局,新北市新莊區建安街１２７號１樓,新北市新莊區建安街127號1樓,25.0238054,121.4259309,(02)22037077,0,174,2020/09/15 21:44:46
593106A931,建安藥局,新北市新莊區建安街１１７號、１１９號１樓,新北市新莊區建安街117號、119號1樓,25.0239881,121.4262851,(02)22051969,5620,1336,2020/09/15 21:44:46
593106A940,樂福藥局,新北市新莊區幸福路４８號１樓,新北市新莊區幸福路48號1樓,25.0495016,121.4576765,(02)29923388,3654,300,2020/09/15 21:44:46
593106A959,新莊大藥局,新北市新莊區福壽街１３０號１樓,新北市新莊區福壽街130號1樓,25.0515278,121.4577786,(02)29933885,804,39,2020/09/15 21:44:46
593106A968,新莊丁丁藥局,新北市新莊區民安西路２３７號１樓,新北市新莊區民安西路237號1樓,25.0139501,121.4261416,22022388,15187,728,2020/09/15 21:44:46
593106A977,丹鳳藥局,新北市新莊區中正路７４５、７４７號（１樓）,新北市新莊區中正路745、747號(1樓),25.028574,121.422516,29065755,11024,1260,2020/09/15 21:44:46
593106A995,美德心藥局,新北市新莊區中平路３６７號１樓,新北市新莊區中平路367號1樓,25.0521229,121.4445947,29989025,5225,0,2020/09/15 21:44:46
593201A015,悅民藥局,桃園市桃園區中山東路１１９－１號,桃園市桃園區中山東路119-1號,24.996925,121.317403,(03)3350452,6219,1859,2020/09/15 21:44:46
593201A195,力美藥局,桃園市桃園區永安路三七七號,桃園市桃園區永安路三七七號,25.0008619,121.2990049,(03)3334191,1317,1240,2020/09/15 21:44:46
593201A284,康泰藥局,桃園市桃園區大業路一段三二三號,桃園市桃園區大業路一段三二三號,25.0114416,121.3127632,(03)3588299,2714,0,2020/09/15 21:44:46
593201A435,勝祥藥局,桃園市桃園區中正路五五八號二樓,桃園市桃園區中正路五五八號二樓,25.00363,121.305727,(03)3473856,7,9,2020/09/15 21:44:46
593201A499,永安藥局,桃園市桃園區寶山街二三五號一樓之二,桃園市桃園區寶山街二三五號一樓之二,25.011697,121.3150459,(03)3175777,6,6,2020/09/15 21:44:46
593201A506,永忻藥局,桃園市桃園區大興路一九三號一樓,桃園市桃園區大興路一九三號一樓,25.0137195,121.3037945,(03)3587669,4357,700,2020/09/15 21:44:46
593201A542,昌維藥師藥局,桃園市桃園區縣府路二二號二樓,桃園市桃園區縣府路二二號二樓,24.9931569,121.3010063,(03)3315091,423,1020,2020/09/15 21:44:46
593201A604,啄木鳥藥局,桃園市桃園區南平路４１１號,桃園縣桃園市南平路411號,25.017198,121.2963421,(03)3467698,4869,70,2020/09/15 21:44:46
593201A631,大國民藥局,桃園市桃園區中正路５７８號１樓,桃園市桃園區中正路578號1樓,25.0040652,121.3053395,(03)3355575,2800,0,2020/09/15 21:44:46
593201A640,大心藥局,桃園市桃園區中平路１４１號,桃園市桃園區中平路141號,24.9863425,121.2933802,(03)2209842,3814,0,2020/09/15 21:44:46
593201A668,佑您康聯合藥局,桃園市桃園區寶山街３８５號,桃園市桃園區寶山街385號,25.0106821,121.3116725,(03)3463999,2266,467,2020/09/15 21:44:46
593201A748,大田大藥局,桃園市桃園區中正路３８０號,桃園市桃園區中正路380號,24.999508,121.308206,(03)3372886,4414,2060,2020/09/15 21:44:46
593202A173,宏瑞藥局,桃園市中壢區興仁路三段９５號,桃園市中壢區興仁路三段95號,24.9542124,121.2642528,(03)4385067,2927,1033,2020/09/15 21:44:46
593202A226,冠昇藥局,桃園市中壢區慈惠三街１１７號２樓,桃園市中壢區慈惠三街117號2樓,24.9633869,121.2254122,(03)4260227,3007,437,2020/09/15 21:44:46
593202A244,澤仁藥局,桃園市中壢區中正路２６３號,桃園市中壢區中正路263號,24.955007,121.2193673,(03)4252254,2854,1010,2020/09/15 21:44:46
593202A360,福德藥局,桃園市中壢區福德路３０號,桃園市中壢區福德路30號,24.9739679,121.258984,(03)4511208,2562,0,2020/09/15 21:44:46
593202A600,一心藥局,桃園市中壢區環北路184號2樓,桃園市中壢區環北路184號2樓,24.9661088,121.2217535,(03)4250560,0,250,2020/09/15 21:44:46
593202A655,益昌藥局,桃園市中壢區龍岡路二段１２５號,桃園市中壢區龍岡路二段125號,24.9450672,121.2295437,(03)2842862,698,0,2020/09/15 21:44:46
593202A931,佳佑藥局,桃園市中壢區環中東路二四一號,桃園市中壢區環中東路二四一號,24.9623827,121.2554069,(03)4356190,0,728,2020/09/15 21:44:46
593202B054,幸福藥局,桃園市中壢區中光路３號,桃園市中壢區中光路3號,24.9577839,121.2257829,(03)4223092,2305,999,2020/09/15 21:44:46
593202B143,永康藥局,桃園市中壢區中華路一段六九八號二樓,桃園市中壢區中華路一段六九八號二樓,24.969011,121.248823,(03)4627301,1665,1107,2020/09/15 21:44:46
593202B214,美十藥局,桃園市中壢區健行路七九號一樓,桃園市中壢區健行路七九號一樓,24.9528576,121.2264514,(03)2840520,2329,1510,2020/09/15 21:44:46
593202B296,慧康藥局,桃園市中壢區中北路二段１０１號１樓,桃園市中壢區中北路二段101號1樓,24.9512185,121.2255204,(03)2840064,2281,50,2020/09/15 21:44:46
593202B303,優健藥局,桃園市中壢區中山東路三段九號,桃園市中壢區中山東路三段九號,24.9450383,121.2483509,(03)4364006,24,0,2020/09/15 21:44:46
593202B330,康博藥局,桃園市中壢區元化路二七二號一樓,桃園市中壢區元化路二七二號一樓,24.9620198,121.2253067,(03)4256302,2952,1325,2020/09/15 21:44:46
593202B349,健康生活藥局,桃園市中壢區中山路二五號,桃園市中壢區中山路二五號,24.9565682,121.2225806,(03)4272729,1821,1898,2020/09/15 21:44:46
593202B394,永豐藥局,桃園市中壢區民族路五段四六Ｏ號,桃園市中壢區民族路五段四六O號,24.9581041,121.1660467,(03)4205339,2304,0,2020/09/15 21:44:46
593202B401,佳音健保藥局,桃園市中壢區興仁路一段１４４號２樓,桃園市中壢區興仁路一段144號2樓,24.9698509,121.2611419,(03)4516813,3751,1259,2020/09/15 21:44:46
593202B438,祐達藥局,桃園市中壢區民族路二九八號,桃園市中壢區民族路二九八號,24.957466,121.208305,(03)4015995,2646,1506,2020/09/15 21:44:46
593202B447,榮善堂藥局,桃園市中壢區前龍街九號,桃園市中壢區前龍街九號,24.92979,121.253613,(03)4564946,1805,0,2020/09/15 21:44:46
593202B474,自立藥局,桃園市中壢區永福路１０１３號,桃園市中壢區永福路1013號,24.9642719,121.2523209,(03)4558980,5382,751,2020/09/15 21:44:46
593202B483,千葉大藥局,桃園市中壢區新生路三Ｏ七號,桃園市中壢區新生路三O七號,24.9611879,121.2230952,(03)4251886,3105,15,2020/09/15 21:44:46
593202B572,康林藥局,桃園市中壢區龍東路３５４號,桃園市中壢區龍東路354號,24.9321209,121.255808,(03)4659696,2120,1350,2020/09/15 21:44:46
593202B732,愛康藥師藥局,桃園市中壢區龍岡路一段２３０號１樓,桃園市中壢區龍岡路一段230號1樓,24.9476234,121.2261136,(03)4285907,3217,1375,2020/09/15 21:44:46
593202B787,中央藥局,桃園市中壢區中北路二段５６號,桃園市中壢區中北路二段56號,24.950399,121.2245386,(03)4579676,5459,8,2020/09/15 21:44:46
593202B803,中壢聯合藥局,桃園市中壢區大同路１３１號,桃園市中壢區大同路131號,24.9567521,121.2220293,(03)4250641,1815,120,2020/09/15 21:44:46
593210A078,康健複合式連鎖藥局,桃園市平鎮區金陵路三段９１號,桃園市平鎮區金陵路三段91號,24.928818,121.2275641,(03)4684601,0,10,2020/09/15 21:44:46
593210A103,瑞瑄社區大藥局,桃園市平鎮區中豐路南勢二段１６２號,桃園市平鎮區中豐路南勢二段162號,24.9152629,121.2105007,(03)4396205,3744,0,2020/09/15 21:44:46
593210A238,美樂蒂藥局,桃園市平鎮區民族路二三七號二樓,桃園市平鎮區民族路二三七號二樓,24.956463,121.209149,(03)4023131,2115,50,2020/09/15 21:44:46
593620A855,三德藥局,臺中市大里區瑞城里成功路４１９號,台中市大里區瑞城里成功路419號,24.0885942,120.7026619,(04)24953856,4258,1239,2020/09/15 21:44:46
593620A891,御和藥局,臺中市大里區東興里益民路二段３２３號,台中市大里區東興里益民路二段323號,24.112726,120.6837017,(04)24821555,198,490,2020/09/15 21:44:46
593620A917,三商藥局,臺中市大里區中興路２段３３３、３３５號１、２樓,台中市大里區中興路2段333、335號1、2樓,24.110616,120.689716,(04)24852072,4131,40,2020/09/15 21:44:46
593620A935,成功藥局,臺中市大里區塗城路５３０號,台中市大里區塗城路530號,24.0887994,120.701441,(04)24964323,3447,350,2020/09/15 21:44:46
593620B012,廣益藥局,臺中市大里區中興路２段１６７號,台中市大里區中興路2段167號,24.1061246,120.6893507,(04)24839630,5329,618,2020/09/15 21:44:46
593620B138,聯生中西健保藥局,臺中市大里區現岱路１５８巷１１號,台中市大里區現岱路158巷11號,24.1030654,120.6916803,(04)24834058,1111,524,2020/09/15 21:44:46
593620B165,大仁祥藥局,臺中市大里區大德街８９號１樓,台中市大里區大德街89號1樓,24.1094943,120.6805503,(04)24814349,2538,1370,2020/09/15 21:44:46
593620B183,綠洲藥局,臺中市大里區塗城路６０３號,台中市大里區塗城路603號,24.0880563,120.7037554,(04)24932626,3816,230,2020/09/15 21:44:46
593620B307,仁一藥局,臺中市大里區仁化路４９７號,臺中市大里區仁化路497號,24.096047,120.700542,(04)24913610,2656,680,2020/09/15 21:44:46
593620B316,華信藥局,臺中市大里區益民路２段１２號１樓,台中市大里區益民路2段12號1樓,24.1065601,120.6888808,(04)24872992,3513,0,2020/09/15 21:44:46
593620B325,福至藥局,臺中市大里區成功路３８５號,台中市大里區成功路385號,24.0877961,120.7024266,(04)24929116,22,515,2020/09/15 21:44:46
593620B334,健民藥局,臺中市大里區健民路８３－８號,臺中市大里區健民路83-8號,24.0912949,120.729801,(04)24927748,3570,1503,2020/09/15 21:44:46
0145080011,衛生福利部花蓮醫院豐濱原住民分院,花蓮縣豐濱鄉豐濱村光豐路４１號,花蓮縣豐濱鄉豐濱村光豐路41號,23.601916,121.5211876,8358141,7715,1175,2020/09/15 21:44:46
0291010010,連江縣立醫院,連江縣南竿鄉復興村２１７號,連江縣南竿鄉復興村217號,26.1610014,119.9489434,623995,4590,370,2020/09/15 21:44:46
2101010013,松山健康服務中心,臺北市松山區八德路４段６９２號６樓,台北市松山區八德路4段694號1、2樓,25.0498403,121.5773221,(02)27671757,3653,2151,2020/09/15 21:44:46
2101020019,大安健康服務中心,臺北市大安區辛亥路３段１５號,台北市大安區辛亥路3段15號,25.0215769,121.544274,(02)27335831,6350,1140,2020/09/15 21:44:46
2101090011,大同健康服務中心,臺北市大同區昌吉街５２號,台北市大同區昌吉街52號1至2樓,25.065787,121.51627,(02)25853227,3,1430,2020/09/15 21:44:46
2101100227,中山健康服務中心,臺北市中山區松江路３６７號７樓,台北市中山區松江路367號1樓,25.064444,121.533568,(02)25014616,2001,920,2020/09/15 21:44:46
2101110027,內湖健康服務中心,臺北市內湖區民權東路６段９９號２樓,台北市內湖區民權東路6段99號,25.0693188,121.5890863,(02)27911162,1348,2060,2020/09/15 21:44:46
2101120014,南港健康服務中心,臺北市南港區南港路１段３６０號７樓,台北市南港區南港路1段360號1樓,25.0545654,121.6068639,(02)27825220,3699,377,2020/09/15 21:44:46
2101150012,士林健康服務中心,臺北市士林區中正路１段４３９號２樓,台北市士林區中正路439號1樓,25.0927619,121.5195592,(02)28813039,2430,840,2020/09/15 21:44:46
2101161033,北投健康服務中心,臺北市北投區石牌路２段１１１號,台北市北投區新市街30號5樓,25.1323774,121.5029288,(02)28261026,2602,270,2020/09/15 21:44:46
2101170050,信義健康服務中心,臺北市信義區信義路５段１５號,台北市信義區信義路5段15號,25.0333271,121.5668474,(02)27234598,3193,1785,2020/09/15 21:44:46
2101180038,中正健康服務中心,臺北市中正區牯嶺街２４號,台北市中正區牯嶺街24號,25.0304135,121.51592,(02)23215158,1593,896,2020/09/15 21:44:46
2101191068,萬華健康服務中心,臺北市萬華區東園街１５２號,台北市萬華區東園街152號,25.0231545,121.497548,(02)23033092,133,2450,2020/09/15 21:44:46
2101200017,政大(文山健康服務中心),臺北市文山區木柵路３段２２０號,台北市文山區指南路2段117號,24.987628,121.5765284,(02)22343501,1572,1337,2020/09/15 21:44:46
2303240013,臺中市中西區衛生所,臺中市西區民權路１０５號,臺中市西區民權路105號,24.1411261,120.6759224,(04)22223811,4165,435,2020/09/15 21:44:46
2311010010,基隆市中正區衛生所,基隆市中正區中正路２３６號２樓,基隆市中正區中正路236號2樓,25.1407924,121.7592534,(02)24621632,3188,800,2020/09/15 21:44:46
2311020016,基隆市七堵區衛生所,基隆市七堵區光明路２１－１（１－２樓）,基隆市七堵區光明路21-1(1-2樓),25.0976273,121.7165311,(02)24562008,1875,1148,2020/09/15 21:44:46
2311030012,基隆市暖暖區衛生所,基隆市暖暖區暖暖街２８１巷９８號,基隆市暖暖區暖暖街281巷98號,25.098868,121.7364479,(02)24572630,10830,1190,2020/09/15 21:44:46
2311040018,基隆市仁愛區衛生所,基隆市仁愛區光一路２６號,基隆市仁愛區光一路26號,25.125261,121.736844,(02)24311592,580,1333,2020/09/15 21:44:46
2311050014,基隆市中山區衛生所,基隆市中山區中山二路１５號,基隆市中山區中山二路15號,25.1371702,121.7408333,(02)24229860,4423,1130,2020/09/15 21:44:46
2311060010,基隆市安樂區衛生所,基隆市安樂區安樂路２段１６４號１樓前棟,基隆市安樂區安樂路2段164號1樓前棟,25.1210471,121.7233271,(02)24318061,923,682,2020/09/15 21:44:46
2311070016,基隆市信義區衛生所,基隆市信義區信一路６９號,基隆市信義區信一路69號,25.1285766,121.7519195,(02)24221633,2448,3290,2020/09/15 21:44:46
2312010014,新竹市東區衛生所,新竹市東區民族路４０之２號,新竹市東區民族路40之2號,24.8051904,120.9732363,(03)5236158,2023,230,2020/09/15 21:44:46
2312041028,新竹市北區衛生所,新竹市北區國華街六十九號一樓,新竹市北區國華街六十九號一樓,24.8163726,120.9703141,(03)5353969,4131,300,2020/09/15 21:44:46
2312050018,新竹市香山衛生所,新竹市香山區牛埔里育德街１８８號２樓,新竹市香山區牛埔里育德街188號2樓,24.7940491,120.9422677,(03)5388109,1343,1130,2020/09/15 21:44:46
2317020010,臺中市東區衛生所,臺中市東區信義街１４２號,臺中市東區信義街142號,24.1332989,120.6877792,(04)22834121,5184,780,2020/09/15 21:44:46
2317040012,臺中市南區衛生所,臺中市南區工學路７２號２樓,台中市南區工學路72號2樓,24.1171843,120.6636421,(04)22629735,351,1060,2020/09/15 21:44:46
2317050018,臺中市北區衛生所,臺中市北區永興街３０１號４樓,臺中市北區永興街301號4樓,24.165956,120.6823193,(04)22359182,2925,2435,2020/09/15 21:44:46
2317060014,臺中市西屯區衛生所,臺中市西屯區西安里西屯路二段２９９號,臺中市西屯區西安里西屯路二段299號,24.178959,120.640332,(04)27027068,1131,260,2020/09/15 21:44:46
2317070010,臺中市南屯區衛生所,臺中市南屯區向心南路８１１號１樓,臺中市南屯區向心南路811號1樓,24.1343175,120.6438177,(04)23827640,5024,1712,2020/09/15 21:44:46
2317080016,台中市北屯區軍功衛生所,臺中市北屯區軍功路二段１６號,台中市北屯區軍功路二段16號,24.1762407,120.7193512,(04)22393932,3169,2121,2020/09/15 21:44:46
2317081022,台中市北屯區四民衛生所,臺中市北屯區后庄路１０６２號,台中市北屯區后庄路1062號,24.192751,120.6806546,(04)24211945,1183,1990,2020/09/15 21:44:46
2321010013,臺南市東區衛生所,臺南市東區龍山里林森路１段４１８號,台南市東區龍山里林森路1段418號,22.9811052,120.2134355,(06)2673613,1802,783,2020/09/15 21:44:46
2321030015,臺南市中西區衛生所,臺南市中西區安海里環河街９４號,臺南市中西區安海里環河街94號,22.995876,120.192395,(06)2252403,3461,1911,2020/09/15 21:44:46
2321040011,臺南巿北區衛生所,臺南市北區公園里西華街５０號,臺南市北區公園里西華街50號,23.0001714,120.2108907,(06)2252404,808,640,2020/09/15 21:44:46
2321060013,台南市安南區衛生所,臺南市安南區仁安路７０號２樓,台南市安南區仁安路70號2樓,23.0498419,120.1757919,(06)2567406,1797,1428,2020/09/15 21:44:46
2321070019,台南市安平區衛生所,臺南市安平區平通里育平路３１０號,台南市安平區平通里育平路310號,22.9943652,120.1682577,(06)2996885,1253,1280,2020/09/15 21:44:46
2322010017,嘉義市東區衛生所,嘉義市東區大雅路二段６２５號,嘉義市東區大雅路二段625號,23.4768617,120.4663203,(05)2750423,2677,687,2020/09/15 21:44:46
2322020013,嘉義市西區衛生所,嘉義市西區福全里德明路１號,嘉義市西區福全里德明路1號,23.479976,120.431072,(05)2337355,2124,2130,2020/09/15 21:44:46
2331070012,新北市樹林區衛生所,新北市樹林區樹新路４０－７號１、２樓,新北市樹林區樹新路40-7號1、2樓,24.9962971,121.4287161,(02)26812134,5647,651,2020/09/15 21:44:46
2331080018,新北市鶯歌區衛生所,新北市鶯歌區文化路３８９號,新北市鶯歌區文化路389號,24.950582,121.352538,(02)26702304,2792,1603,2020/09/15 21:44:46
2331090014,新北市三峽區衛生所,新北市三峽區光明路７１號３樓,新北市三峽區光明路71號3樓,24.9283135,121.3761245,(02)26711592,7713,1094,2020/09/15 21:44:46
2331100015,新北市淡水區衛生所,新北市淡水區中山路１５８號,新北市淡水區中山路158號,25.1727279,121.440901,(02)26215620,7532,556,2020/09/15 21:44:46
2331120017,新北市瑞芳區衛生所,新北市瑞芳區明燈路３段１號,新北市瑞芳區明燈路3段1號,25.1073798,121.8090713,(02)24972132,2027,940,2020/09/15 21:44:46
2331150015,新北市五股區衛生所,新北市五股區新城三路１１號１樓、２樓及３樓,新北市五股區新城三路11號1樓、2樓及3樓,25.0940597,121.44775,(02)22917717,10824,1060,2020/09/15 21:44:46
2331160011,新北市泰山區衛生所,新北市泰山區全興路２１２號３樓,新北市泰山區全興路212號3樓,25.0563924,121.4334857,(02)22962858,13117,1045,2020/09/15 21:44:46
2331170017,新北市林口區衛生所,新北市林口區忠孝二路５５號,新北市林口區忠孝二路55號,25.069685,121.3640893,(02)26068760,8072,1013,2020/09/15 21:44:46
2331180013,新北市深坑區衛生所,新北市深坑區深坑街１６５號１－３樓,新北市深坑區深坑街165號1-3樓,25.0009135,121.6125718,(02)26621567,4917,1212,2020/09/15 21:44:46
2331190019,新北市石碇區衛生所,新北市石碇區潭邊里碇坪路１段８２號,新北市石碇區潭邊里碇坪路1段82號,24.9913712,121.657633,(02)26631325,3369,1063,2020/09/15 21:44:46
2331200010,新北市坪林區衛生所,新北市坪林區坪林街１０４號,新北市坪林區坪林街104號,24.9359218,121.7116516,(02)26656272,5094,1692,2020/09/15 21:44:46
2331210016,新北市三芝區衛生所,新北市三芝區中山路１段１２號,新北市三芝區中山路1段12號,25.2585806,121.5006647,(02)26362007,10079,1030,2020/09/15 21:44:46
2331220012,新北市石門區衛生所,新北市石門區中山路２８－１號,新北市石門區中山路28-1號,25.290217,121.5659907,(02)26381007,17290,1820,2020/09/15 21:44:46
2331230018,新北市八里區衛生所,新北市八里區舊城路１６號,新北市八里區舊城路16號,25.1465233,121.4001298,(02)26102137,5856,1385,2020/09/15 21:44:46
2331240014,新北市平溪區衛生所,新北市平溪區公園街１７號１樓,新北市平溪區公園街17號1樓,25.025059,121.7378207,(02)24951015,3996,510,2020/09/15 21:44:46
2331250010,新北市雙溪區衛生所,新北市雙溪區新基南路１８號,新北市雙溪區新基南路18號,25.0380061,121.8663007,(02)24931211,1406,1285,2020/09/15 21:44:46
2331260016,新北市貢寮區衛生所,新北市貢寮區朝陽街７０巷１０號、新北市貢寮區仁愛路１２８號,新北市貢寮區朝陽街70巷10號、新北市貢寮區仁愛路128號,25.021931,121.9095858,(02)24901431,4498,1361,2020/09/15 21:44:46
2331270012,新北市金山區衛生所,新北市金山區民生路５９號,新北市金山區民生路59號,25.2206497,121.64115,(02)24982778,3705,1336,2020/09/15 21:44:46
2331280018,新北市萬里區衛生所,新北市萬里區瑪鍊路１５７號１－３樓及地下１樓,新北市萬里區瑪鍊路157號1-3樓及地下1樓,25.1783898,121.6897342,(02)24921117,4586,394,2020/09/15 21:44:46
2331290014,新北市烏來區衛生所,新北市烏來區新烏路５段１０９號,新北市烏來區新烏路5段109號,24.8719874,121.5478135,(02)26617200,3064,977,2020/09/15 21:44:46
2332030012,桃園市大溪區衛生所,桃園市大溪區仁愛路１號,桃園市大溪區仁愛路1號,24.8844771,121.2854738,(03)3882401,2788,1826,2020/09/15 21:44:46
2332040018,桃園市楊梅區衛生所,桃園市楊梅區校前路４０９號,桃園市楊梅區校前路409號,24.8969598,121.1497885,(03)4750151,1802,580,2020/09/15 21:44:46
2332060010,桃園市大園區衛生所,桃園市大園區田心里中正西路１９號,桃園市大園區田心里中正西路19號,25.0634033,121.1954442,(03)3862024,4701,1740,2020/09/15 21:44:46
2332080012,桃園市八德區衛生所,桃園市八德區大華里介壽路二段３６１巷２８號,桃園市八德區大華里介壽路二段361巷28號,24.9474988,121.2986544,(03)3662781,3676,2076,2020/09/15 21:44:46
2332090018,桃園市龍潭區衛生所,桃園市龍潭區中正路２１０號１至２樓,桃園市龍潭區中正路210號1至2樓,24.8644027,121.2168913,(03)4792033,2797,292,2020/09/15 21:44:46
2332100019,桃園市平鎮區衛生所,桃園市平鎮區新富里１鄰振興路１號,桃園市平鎮區新富里1鄰振興路1號,24.9459095,121.2179189,(03)4576624,1107,1690,2020/09/15 21:44:46
2332110015,桃園市新屋區衛生所,桃園市新屋區新屋里中山路２３９號,桃園市新屋區新屋里中山路239號,24.972535,121.106582,(03)4772018,4402,768,2020/09/15 21:44:46
2332120011,桃園市觀音區衛生所,桃園市觀音區觀新路５８號,桃園市觀音區觀新路58號,25.0276679,121.083371,(03)4732031,4281,1263,2020/09/15 21:44:46
2332130017,桃園市復興區衛生所,桃園市復興區澤仁里中正路２５號,桃園市復興區澤仁里中正路25號,24.8151014,121.3509985,(03)3822325,1121,1625,2020/09/15 21:44:46
2333010014,新竹縣關西鎮衛生所,新竹縣關西鎮中山路２０７號,新竹縣關西鎮中山路207號,24.7917656,121.1726305,(03)5872454,846,2360,2020/09/15 21:44:46
2333020010,新竹縣新埔鎮衛生所,新竹縣新埔鎮新民里中正路７５８號,新竹縣新埔鎮新民里中正路758號,24.8279487,121.0716669,(03)5882017,189,1360,2020/09/15 21:44:46
2333030016,新竹縣竹東鎮衛生所,新竹縣竹東鎮中正路２２１號,新竹縣竹東鎮中正路221號,24.736027,121.0928981,(03)5943566,1800,1297,2020/09/15 21:44:46
2333050018,新竹縣竹北市衛生所,新竹縣竹北市光明二街８９號,新竹縣竹北市光明二街89號,24.8321451,121.0067794,(03)5533381,4054,808,2020/09/15 21:44:46
2333060014,新竹縣湖口鄉衛生所,新竹縣湖口鄉中勢村中興街３６號,新竹縣湖口鄉中勢村中興街36號,24.9009438,121.0481527,(03)5992654,2529,860,2020/09/15 21:44:46
2333070010,新竹縣橫山鄉衛生所,新竹縣橫山鄉大肚村３鄰新興街１４１巷１０號,新竹縣橫山鄉大肚村3鄰新興街141巷10號,24.7180015,121.1399892,(03)5932004,1161,2210,2020/09/15 21:44:46
2333080016,新竹縣新豐鄉衛生所,新竹縣新豐鄉重興村萃豐路２１號,新竹縣新豐鄉重興村萃豐路21號,24.8999145,120.9881191,(03)5591150,915,1849,2020/09/15 21:44:46
2333090012,新竹縣芎林鄉衛生所,新竹縣芎林鄉文山路５３２號,新竹縣芎林鄉文山路532號,24.7774237,121.0777504,(03)5924787,4482,1100,2020/09/15 21:44:46
2333100013,新竹縣寶山鄉衛生所,新竹縣寶山鄉雙溪村７鄰雙園路二段２７３號,新竹縣寶山鄉雙溪村7鄰雙園路二段273號,24.7667858,120.9948465,(03)5292106,1525,1343,2020/09/15 21:44:46
2333110019,新竹縣北埔鄉衛生所,新竹縣北埔鄉北埔街９０號,新竹縣北埔鄉北埔街90號,24.700396,121.055265,(03)5801677,4367,1131,2020/09/15 21:44:46
2333120015,新竹縣峨眉鄉衛生所,新竹縣峨眉鄉峨眉村峨眉街２鄰５號,新竹縣峨眉鄉峨眉村峨眉街2鄰5號,24.6876566,121.0222651,(03)5800314,3615,1753,2020/09/15 21:44:46
2333130011,新竹縣尖石鄉衛生所,新竹縣尖石鄉嘉樂村２鄰６１號,新竹縣尖石鄉嘉樂村2鄰61號,24.7057362,121.2023634,(03)5842356,3051,1110,2020/09/15 21:44:46
2333140017,新竹縣五峰鄉衛生所,新竹縣五峰鄉大隘村六鄰９９號,新竹縣五峰鄉大隘村六鄰99號,24.6316696,121.1193125,(03)5851005,2047,1434,2020/09/15 21:44:46
2334010018,宜蘭縣宜蘭市衛生所,宜蘭縣宜蘭市健康路二段２－２號１樓,宜蘭縣宜蘭市健康路二段2-2號1樓,24.745852,121.7522429,(03)9322362,10558,2315,2020/09/15 21:44:46
2334020014,宜蘭縣羅東鎮衛生所,宜蘭縣羅東鎮民生路７９號,宜蘭縣羅東鎮民生路79號,24.677534,121.766968,(03)9542321,8778,1979,2020/09/15 21:44:46
2334030010,宜蘭縣蘇澳鎮衛生所,宜蘭縣蘇澳鎮志成路６０號,宜蘭縣蘇澳鎮志成路60號,24.5931067,121.8423498,(03)9962185,18933,766,2020/09/15 21:44:46
2334040016,宜蘭縣頭城鎮衛生所,宜蘭縣頭城鎮吉祥路１５號,宜蘭縣頭城鎮吉祥路15號,24.8567259,121.820481,(03)9771034,10222,2100,2020/09/15 21:44:46
2334050012,宜蘭縣礁溪鄉衛生所,宜蘭縣礁溪鄉礁溪路４段１２６號,宜蘭縣礁溪鄉礁溪路4段126號,24.8208079,121.7696043,(03)9882908,10112,763,2020/09/15 21:44:46
2334060018,宜蘭縣壯圍鄉衛生所,宜蘭縣壯圍鄉中央路２段２９０號,宜蘭縣壯圍鄉中央路2段290號,24.7470121,121.78656,(03)9385503,9875,824,2020/09/15 21:44:46
2334070014,宜蘭縣員山鄉衛生所,宜蘭縣員山鄉復興路２號,宜蘭縣員山鄉復興路2號,24.7442418,121.7243926,(03)9221575,15417,613,2020/09/15 21:44:46
2334090016,宜蘭縣五結鄉衛生所,宜蘭縣五結鄉五結路２段３３７號,宜蘭縣五結鄉五結路2段337號,24.6849399,121.7989064,(03)9501564,11884,669,2020/09/15 21:44:46
2334100017,宜蘭縣三星鄉衛生所,宜蘭縣三星鄉三星路５段７０號,宜蘭縣三星鄉三星路5段70號,24.6661321,121.651575,(03)9892227,8879,2010,2020/09/15 21:44:46
2334110013,宜蘭縣大同鄉衛生所,宜蘭縣大同鄉崙埤村朝陽４０號,宜蘭縣大同鄉崙埤村朝陽40號,24.6779782,121.6088982,(03)9801175,11493,1466,2020/09/15 21:44:46
2334120019,宜蘭縣南澳鄉衛生所,宜蘭縣南澳鄉蘇花路２段３７５號,宜蘭縣南澳鄉蘇花路2段375號,24.4657662,121.8034729,(03)9981019,13329,357,2020/09/15 21:44:46
2335010012,苗栗縣苗栗市衛生所,苗栗縣苗栗市建民街２８號,苗栗縣苗栗市建民街28號,24.5659206,120.8249443,(037)277129,3209,1520,2020/09/15 21:44:46
2335020018,苗栗縣苑裡鎮衛生所,苗栗縣苑裡鎮客庄里公民街１６號,苗栗縣苑裡鎮客庄里公民街16號,24.4395999,120.6527551,(037)869595,3321,810,2020/09/15 21:44:46
2335030014,苗栗縣通霄鎮衛生所,苗栗縣通霄鎮通東里中正路９－６號,苗栗縣通霄鎮通東里中正路9-6號,24.490392,120.68334,(037)752048,4770,1010,2020/09/15 21:44:46
2335040010,苗栗縣竹南鎮衛生所,苗栗縣竹南鎮大營路２０９號,苗栗縣竹南鎮大營路209號,24.687746,120.872444,(037)470152,9071,2000,2020/09/15 21:44:46
2335050016,苗栗縣頭份市衛生所,苗栗縣頭份市顯會路７２號,苗栗縣頭份市顯會路72號,24.6904446,120.9156672,(037)663049,3148,1718,2020/09/15 21:44:46
2335060012,苗栗縣後龍鎮衛生所,苗栗縣後龍鎮大庄里21鄰光華路３７１號,苗栗縣後龍鎮大庄里21鄰光華路371號,24.6116932,120.789628,(037)722008,6974,1990,2020/09/15 21:44:46
2335070018,苗栗縣卓蘭鎮衛生所,苗栗縣卓蘭鎮老庄里中正路１４２號,苗栗縣卓蘭鎮老庄里中正路142號,24.312573,120.831399,(04)25892027,2340,2050,2020/09/15 21:44:46
2335080014,苗栗縣大湖鄉衛生所,苗栗縣大湖鄉明湖村中原路８７號,苗栗縣大湖鄉明湖村中原路87號,24.424666,120.866164,(037)991034,5438,1435,2020/09/15 21:44:46
2335090010,苗栗縣公館鄉衛生所,苗栗縣公館鄉館中村大同路７５號,苗栗縣公館鄉館中村大同路75號,24.5000142,120.8276465,(037)224732,861,1100,2020/09/15 21:44:46
2335100011,苗栗縣銅鑼鄉衛生所,苗栗縣銅鑼鄉銅鑼村新興路８１號,苗栗縣銅鑼鄉銅鑼村新興路81號,24.4847951,120.7932144,(037)981006,5085,1080,2020/09/15 21:44:46
2335110017,苗栗縣南庄鄉衛生所,苗栗縣南庄鄉東村大同路１７號,苗栗縣南庄鄉東村大同路17號,24.5973587,121.0000125,(037)822024,2974,680,2020/09/15 21:44:46
2335120013,苗栗縣頭屋鄉衛生所,苗栗縣頭屋鄉頭屋村中山街５６巷５４號,苗栗縣頭屋鄉頭屋村中山街56巷54號,24.5763846,120.8499832,(037)253534,1583,1190,2020/09/15 21:44:46
2335130019,苗栗縣三義鄉衛生所,苗栗縣三義鄉復興路45號,苗栗縣三義鄉復興路45號,24.4131429,120.7706965,(037)872014,5199,1330,2020/09/15 21:44:46
2335140015,苗栗縣西湖鄉衛生所,苗栗縣西湖鄉龍洞村１鄰１６號,苗栗縣西湖鄉龍洞村1鄰16號,24.556441,120.7585914,(037)921211,5010,475,2020/09/15 21:44:46
2335150011,苗栗縣造橋鄉衛生所,苗栗縣造橋鄉造橋村１４鄰８－２號,苗栗縣造橋鄉造橋村14鄰8-2號,24.6366871,120.8642954,(037)542755,3069,1140,2020/09/15 21:44:46
2335160017,苗栗縣三灣鄉衛生所,苗栗縣三灣鄉三灣村親民路１７號,苗栗縣三灣鄉三灣村親民路17號,24.6528473,120.9566614,(037)831140,1269,2075,2020/09/15 21:44:46
2335170013,苗栗縣獅潭鄉衛生所,苗栗縣獅潭鄉新店村１３０之６號,苗栗縣獅潭鄉新店村130之6號,24.5279009,120.9359987,(037)931309,3591,1620,2020/09/15 21:44:46
2335180019,苗栗縣泰安鄉衛生所,苗栗縣泰安鄉清安村２鄰７２號,苗栗縣泰安鄉清安村2鄰72號,24.4472166,120.9084643,(037)941054,4713,306,2020/09/15 21:44:46
2336010016,臺中市豐原區衛生所,臺中市豐原區西勢里中興路１３６號,臺中市豐原區西勢里中興路136號,24.2482475,120.7140643,(04)25261170,3494,1042,2020/09/15 21:44:46
2336020012,臺中市東勢區衛生所,臺中市東勢區中寧里豐勢路４９０號,臺中市東勢區中寧里豐勢路490號,24.257581,120.828362,(04)25873872,7477,1570,2020/09/15 21:44:46
2336030018,臺中市大甲區衛生所,臺中市大甲區德興路８１號,臺中市大甲區德興路81號,24.3504184,120.6244581,(04)26872153,5058,600,2020/09/15 21:44:46
2336040014,臺中市清水區衛生所,臺中市清水區中山路９２號,臺中市清水區中山路92號,24.2665359,120.5746381,(04)26222639,722,1510,2020/09/15 21:44:46
2336050010,臺中市沙鹿區衛生所,臺中市沙鹿區洛泉里文昌路２０號,臺中市沙鹿區洛泉里文昌路20號,24.2417747,120.5497892,(04)26625040,1325,1403,2020/09/15 21:44:46
2336060016,臺中市梧棲區衛生所,臺中市梧棲區雲集街７０巷３號,臺中市梧棲區雲集街70巷3號,24.2548541,120.5320438,(04)26562809,3807,1620,2020/09/15 21:44:46
2336070012,臺中市后里區衛生所,臺中市后里區墩西里公安路８６號,台中市后里區墩西里公安路86號,24.3051566,120.7103686,(04)25562048,504,510,2020/09/15 21:44:46
2336080018,臺中市神岡區衛生所,臺中市神岡區神岡里神岡路２號,臺中市神岡區神岡里神岡路2號,24.258184,120.6628674,(04)25622792,2105,1774,2020/09/15 21:44:46
2336090014,臺中市潭子區衛生所,臺中市潭子區中山路２段２４１巷５號,臺中市潭子區中山路2段241巷5號,24.2098748,120.7042434,(04)25324643,2432,1880,2020/09/15 21:44:46
2336100015,臺中市大雅區衛生所,臺中市大雅區中清東路２３２號,臺中市大雅區中清東路232號,24.2249805,120.6469397,(04)25661091,4383,1450,2020/09/15 21:44:46
2336110011,臺中市新社區衛生所,臺中市新社區新社里興社街４段１號,臺中市新社區新社里興社街4段1號,24.2405893,120.8091712,(04)25811704,4419,1281,2020/09/15 21:44:46
2336120017,臺中市石岡區衛生所,臺中市石岡區石岡街６號,臺中市石岡區石岡街6號,24.2760526,120.7775333,(04)25721887,585,1399,2020/09/15 21:44:46
2336130013,臺中市外埔區衛生所,臺中市外埔區甲后路三段１０６２號,臺中市外埔區甲后路三段1062號,24.333103,120.652148,(04)26833208,4515,1360,2020/09/15 21:44:46
2336140019,臺中市大安區衛生所,臺中市大安區中山南路３３３號,臺中市大安區中山南路333號,24.3461535,120.5863023,(04)26713681,4398,1562,2020/09/15 21:44:46
2336150015,臺中市烏日區衛生所,臺中市烏日區烏日里長樂街１３６號,臺中市烏日區烏日里長樂街136號,24.105098,120.624453,(04)23381027,0,1630,2020/09/15 21:44:46
2336160011,臺中市大肚區衛生所,臺中市大肚區頂街里榮華街１號,臺中市大肚區頂街里榮華街1號,24.1550798,120.5448208,(04)26996311,2337,985,2020/09/15 21:44:46
2336170017,臺中市龍井區衛生所,臺中市龍井區竹坑里沙田路４段２４３號,臺中市龍井區竹坑里沙田路4段243號,24.1916891,120.5457236,(04)26352228,5724,1587,2020/09/15 21:44:46
2336180013,台中市霧峰區衛生所,臺中市霧峰區本堂里民生路１－９號,台中市霧峰區本堂里民生路1-9號,24.0608065,120.7008044,(04)23393022,2372,2190,2020/09/15 21:44:46
2336190019,臺中市太平區衛生所,臺中市太平區中山路１段２１３之１號,臺中市太平區中山路1段213之1號,24.1421029,120.7312157,(04)23938083,1381,765,2020/09/15 21:44:46
2336200010,臺中市大里區衛生所,臺中市大里區大衛路８２號,臺中市大里區大衛路82號,24.0976302,120.6790812,(04)24061500,1484,1258,2020/09/15 21:44:46
2336210025,臺中市和平區衛生所,臺中市和平區南勢里東關路３段１３２號,臺中市和平區南勢里東關路3段132號,24.1741196,120.8886169,(04)25942781,1545,1380,2020/09/15 21:44:46
2336210034,臺中市和平區梨山衛生所,臺中市和平區梨山里中正路６８號,臺中市和平區梨山里中正路68號,24.2538055,121.2538374,(04)25989540,3845,1168,2020/09/15 21:44:46
2337010010,彰化縣彰化市南西北區衛生所,彰化縣彰化市華北里旭光路１６６號,彰化縣彰化市華北里旭光路166號,24.072956,120.546256,(04)7282141,816,2089,2020/09/15 21:44:46
2337010029,彰化縣彰化市東區衛生所,彰化縣彰化市香山里彰南路２段３４６巷３１弄２６號,彰化縣彰化市香山里彰南路2段346巷31弄26號,24.08088,120.585936,(04)7381647,531,1680,2020/09/15 21:44:46
2337020016,彰化縣鹿港鎮衛生所,彰化縣鹿港鎮順興里復興路４２３號,彰化縣鹿港鎮順興里復興路423號,24.0585089,120.435326,(04)7772309,718,1187,2020/09/15 21:44:46
2337030012,彰化縣和美鎮衛生所,彰化縣和美鎮和東里彰美路５段３１９號,彰化縣和美鎮和東里彰美路5段319號,24.1109152,120.4993096,(04)7552744,2801,1242,2020/09/15 21:44:46
2337040018,彰化縣北斗鎮衛生所,彰化縣北斗鎮光復里地政路４０６巷１７號,彰化縣北斗鎮光復里地政路406巷17號,23.8750138,120.5250197,(04)8882059,3537,1240,2020/09/15 21:44:46
2337050014,彰化縣員林市衛生所,彰化縣員林市仁美里博愛路２２９號,彰化縣員林市仁美里博愛路229號,23.9620585,120.5724538,(04)7060230,4509,2090,2020/09/15 21:44:46
2337060010,彰化縣溪湖鎮衛生所,彰化縣溪湖鎮湖東里青雅路３６號,彰化縣溪湖鎮湖東里青雅路36號,23.9657637,120.4832787,(04)8815112,2000,2520,2020/09/15 21:44:46
2337070016,彰化縣田中鎮衛生所,彰化縣田中鎮西路里斗中路一段２２２號,彰化縣田中鎮西路里斗中路一段222號,23.861562,120.5805314,(04)8742053,4561,1465,2020/09/15 21:44:46
2337080012,彰化縣二林鎮衛生所,彰化縣二林鎮豐田里斗苑路四段６８９號,彰化縣二林鎮豐田里斗苑路四段689號,23.8996046,120.3728373,(04)8960035,5492,929,2020/09/15 21:44:46
2337090018,彰化縣線西鄉衛生所,彰化縣線西鄉寓埔村和線路９５７巷２號,彰化縣線西鄉寓埔村和線路957巷2號,24.1303489,120.4704983,(04)7585201,5417,1250,2020/09/15 21:44:46
2337100019,彰化縣伸港鄉衛生所,彰化縣伸港鄉大同村中興路２段１９７號,彰化縣伸港鄉大同村中興路2段197號,24.1595635,120.48561,(04)7982034,2764,2860,2020/09/15 21:44:46
2337110015,彰化縣福興鄉衛生所,彰化縣福興鄉福興村福興路５１巷２號,彰化縣福興鄉福興村福興路51巷2號,24.047766,120.427985,(04)7772371,2457,1900,2020/09/15 21:44:46
2337120020,彰化縣秀水鄉衛生所,彰化縣秀水鄉安東村中山路２８８號,彰化縣秀水鄉安東村中山路288號,24.0353119,120.503318,(04)7693001,1878,1095,2020/09/15 21:44:46
2337130017,彰化縣花壇鄉衛生所,彰化縣花壇鄉長沙村中正路１１號,彰化縣花壇鄉長沙村中正路11號,24.0283384,120.5487615,(04)7862035,5913,1740,2020/09/15 21:44:46
2337140013,彰化縣芬園鄉衛生所,彰化縣芬園鄉社口村公園１街１１號,彰化縣芬園鄉社口村公園1街11號,24.0140807,120.6305511,(049)2522904,3583,1183,2020/09/15 21:44:46
2337150019,彰化縣大村鄉衛生所,彰化縣大村鄉大村村中正西路３４０號,彰化縣大村鄉大村村中正西路340號,23.9934757,120.5468386,(04)8520513,3834,2460,2020/09/15 21:44:46
2337160015,彰化縣埔鹽鄉衛生所,彰化縣埔鹽鄉好修村員鹿路二段５８號,彰化縣埔鹽鄉好修村員鹿路二段58號,24.0003591,120.4632449,(04)8653596,3025,2216,2020/09/15 21:44:46
2337170011,彰化縣埔心鄉衛生所,彰化縣埔心鄉義民村員鹿路２段３４０號,彰化縣埔心鄉義民村員鹿路2段340號,23.9529186,120.5437769,(04)8294611,499,1354,2020/09/15 21:44:46
2337180017,彰化縣永靖鄉衛生所,彰化縣永靖鄉永西村西興路９１號,彰化縣永靖鄉永西村西興路91號,23.9250649,120.5476719,(04)8221057,4123,1180,2020/09/15 21:44:46
2337190013,彰化縣社頭鄉衛生所,彰化縣社頭鄉社頭村員集路二段４０９號,彰化縣社頭鄉社頭村員集路二段409號,23.9021558,120.5859697,(04)8732038,3574,1023,2020/09/15 21:44:46
2337200014,彰化縣二水鄉衛生所,彰化縣二水鄉二水村過圳路１９號,彰化縣二水鄉二水村過圳路19號,23.8118564,120.6155371,(04)8791077,2921,1996,2020/09/15 21:44:46
2337210010,彰化縣田尾鄉衛生所,彰化縣田尾鄉饒平村光復路２段６０８號,彰化縣田尾鄉饒平村光復路2段608號,23.8898727,120.5326657,(04)8832145,3150,2470,2020/09/15 21:44:46
2337220016,彰化縣埤頭鄉衛生所,彰化縣埤頭鄉合興村健安街１１９號,彰化縣埤頭鄉合興村健安街119號,23.8949326,120.4572866,(04)8922445,1728,443,2020/09/15 21:44:46
2337230012,彰化縣芳苑鄉衛生所,彰化縣芳苑鄉芳苑村斗苑路芳苑段１９４巷４８號,彰化縣芳苑鄉芳苑村斗苑路芳苑段194巷48號,23.925045,120.32054,(04)8983134,3515,1604,2020/09/15 21:44:46
2337240018,彰化縣大城鄉衛生所,彰化縣大城鄉大城村中平路１２６號,彰化縣大城鄉大城村中平路126號,23.8532491,120.320719,(04)8941323,2016,844,2020/09/15 21:44:46
2337250014,彰化縣竹塘鄉衛生所,彰化縣竹塘鄉竹塘村竹林路１段３０４號,彰化縣竹塘鄉竹塘村竹林路1段304號,23.8608464,120.4268802,(04)8972009,9708,927,2020/09/15 21:44:46
2337260010,彰化縣溪州鄉衛生所,彰化縣溪州鄉尾厝村溪下路５７０號,彰化縣溪州鄉尾厝村溪下路570號,23.851478,120.498326,(04)8895023,2313,821,2020/09/15 21:44:46
2338010014,南投縣南投市衛生所,南投縣南投市三和里三和一路１３號,南投縣南投市三和里三和一路13號,23.902552,120.688699,(049)2223264,2057,1253,2020/09/15 21:44:46
2338020010,南投縣埔里鎮衛生所,南投縣埔里鎮中山路二段２５６號,南投縣埔里鎮中山路二段256號,23.9669471,120.9687282,(049)2982157,1246,1138,2020/09/15 21:44:46
2338030016,南投縣草屯鎮衛生所,南投縣草屯鎮草溪路８８２巷７號,南投縣草屯鎮草溪路882巷7號,23.9733665,120.6801117,(049)2362023,4995,1426,2020/09/15 21:44:46
2338040012,南投縣竹山鎮衛生所,南投縣竹山鎮公所路１２６號,南投縣竹山鎮公所路126號,23.759486,120.672477,(049)2642026,2187,1178,2020/09/15 21:44:46
2338050018,南投縣集集鎮衛生所,南投縣集集鎮民生路１０６號,南投縣集集鎮民生路106號,23.8288966,120.7866926,(049)2762015,5163,1662,2020/09/15 21:44:46
2338060014,南投縣名間鄉衛生所,南投縣名間鄉中正村彰南路４２號,南投縣名間鄉中正村彰南路42號,23.838515,120.70284,(049)2732135,2727,1010,2020/09/15 21:44:46
2338070010,南投縣鹿谷鄉衛生所,南投縣鹿谷鄉中正路二段２０號,南投縣鹿谷鄉中正路二段20號,23.745099,120.754461,(049)2752002,3469,728,2020/09/15 21:44:46
2338080016,南投縣中寮鄉衛生所,南投縣中寮鄉永平村永昌街１０２號,南投縣中寮鄉永平村永昌街102號,23.8808619,120.7655861,(049)2691404,5733,2081,2020/09/15 21:44:46
2338090012,南投縣魚池鄉衛生所,南投縣魚池鄉東池村魚池街１９４號,南投縣魚池鄉東池村魚池街194號,23.895732,120.94132,(049)2895513,2467,2126,2020/09/15 21:44:46
2338110019,南投縣水里鄉衛生所,南投縣水里鄉博愛路２０５號,南投縣水里鄉博愛路205號,23.8104179,120.8489424,(049)2770079,2368,1578,2020/09/15 21:44:46
2338120015,南投縣信義鄉衛生所,南投縣信義鄉明德村玉山路４５號,南投縣信義鄉明德村玉山路45號,23.696291,120.854671,(049)2791148,2718,818,2020/09/15 21:44:46
2338130011,南投縣仁愛鄉衛生所,南投縣仁愛鄉大同村五福巷１７號,南投縣仁愛鄉大同村五福巷17號,24.024286,121.134383,(049)2802341,3443,1718,2020/09/15 21:44:46
2339040016,雲林縣西螺鎮衛生所,雲林縣西螺鎮福興里修文路１１０號,雲林縣西螺鎮福興里修文路110號,23.8021095,120.4595898,(05)5862130,2752,1650,2020/09/15 21:44:46
2339050012,雲林縣土庫鎮衛生所,雲林縣土庫鎮忠正里中山路２５４號,雲林縣土庫鎮忠正里中山路254號,23.678309,120.392607,(05)6622638,6117,903,2020/09/15 21:44:46
2339060018,北港鎮衛生所,雲林縣北港鎮北辰路３號,雲林縣北港鎮北辰路3號,23.5763686,120.3027401,(05)7832103,3569,1473,2020/09/15 21:44:46
2339070014,雲林縣古坑鄉衛生所,雲林縣古坑鄉西平村中山路３９１號,雲林縣古坑鄉西平村中山路391號,23.6540704,120.5599436,(05)5821132,4357,1641,2020/09/15 21:44:46
2339100017,雲林縣林內鄉衛生所,雲林縣林內鄉新興路５４號,雲林縣林內鄉新興路54號,23.7611485,120.6136241,(05)5892273,3636,840,2020/09/15 21:44:46
2339110013,雲林縣二崙鄉衛生所,雲林縣二崙鄉崙西村中興路９、１１號,雲林縣二崙鄉崙西村中興路9、11號,23.7718692,120.4128209,(05)5982004,1062,1714,2020/09/15 21:44:46
2339120019,雲林縣崙背鄉衛生所,雲林縣崙背鄉南陽村南光路３４號,雲林縣崙背鄉南陽村南光路34號,23.7597955,120.3532739,(05)6962009,5130,1560,2020/09/15 21:44:46
2339130015,雲林縣麥寮鄉衛生所,雲林縣麥寮鄉麥豐村光復路４號,雲林縣麥寮鄉麥豐村光復路4號,23.746925,120.25608,(05)6932268,4263,1249,2020/09/15 21:44:46
2339180015,雲林縣四湖鄉衛生所,雲林縣四湖鄉施湖村中山西路１１８號,雲林縣四湖鄉施湖村中山西路118號,23.6377441,120.2215124,(05)7872890,156,550,2020/09/15 21:44:46
2339200012,雲林縣水林鄉衛生所,雲林縣水林鄉水北村水林路８號,雲林縣水林鄉水北村水林路8號,23.572588,120.2464289,(05)7852612,682,1142,2020/09/15 21:44:46
2340010015,嘉義縣朴子市衛生所,嘉義縣朴子市安福里光復路４０號,嘉義縣朴子市安福里光復路40號,23.4655902,120.2465534,(05)3792037,2926,829,2020/09/15 21:44:46
2340020011,嘉義縣布袋鎮衛生所,嘉義縣布袋鎮新厝里２１號,嘉義縣布袋鎮新厝里21號,23.3814514,120.1698975,(05)3472032,4572,912,2020/09/15 21:44:46
2340030017,嘉義縣大林鎮衛生所,嘉義縣大林鎮平林里中山路２５２號,嘉義縣大林鎮平林里中山路252號,23.6069231,120.4556204,(05)2652042,3503,570,2020/09/15 21:44:46
2340040013,嘉義縣民雄鄉衛生所,嘉義縣民雄鄉中樂村文化路７之２號,嘉義縣民雄鄉中樂村文化路7之2號,23.5515388,120.4284486,(05)2262018,1379,980,2020/09/15 21:44:46
2340050019,嘉義縣溪口鄉衛生所,嘉義縣溪口鄉溪北村二鄰中山路１號,嘉義縣溪口鄉溪北村二鄰中山路1號,23.60638,120.394804,(05)2691046,3310,1320,2020/09/15 21:44:46
2340060015,嘉義縣新港鄉衛生所,嘉義縣新港鄉宮前村中山路１６７號,嘉義縣新港鄉宮前村中山路167號,23.5520894,120.347822,(05)3742025,0,990,2020/09/15 21:44:46
2340070011,嘉義縣六腳鄉衛生所,嘉義縣六腳鄉蒜頭村１５鄰蒜頭７３－１號,嘉義縣六腳鄉蒜頭村15鄰蒜頭73-1號,23.4933915,120.2916428,(05)3802016,2862,819,2020/09/15 21:44:46
2340080017,嘉義縣東石鄉衛生所,嘉義縣東石鄉東石村３之７號,嘉義縣東石鄉東石村3之7號,23.4591893,120.1535349,(05)3732340,1665,1630,2020/09/15 21:44:46
2340090013,嘉義縣義竹鄉衛生所,嘉義縣義竹鄉仁里村義竹４２２－１號,嘉義縣義竹鄉仁里村義竹422-1號,23.337068,120.242821,(05)3412032,3321,2050,2020/09/15 21:44:46
2340100014,嘉義縣鹿草鄉衛生所,嘉義縣鹿草鄉西井村１２鄰長壽路２２６巷２號,嘉義縣鹿草鄉西井村12鄰長壽路226巷2號,23.4184185,120.3003035,(05)3752080,753,601,2020/09/15 21:44:46
2340110010,嘉義縣太保市衛生所,嘉義縣太保市後潭里４４３號,嘉義縣太保市後潭里443號,23.452932,120.339468,(05)3711273,5697,2000,2020/09/15 21:44:46
2340120016,嘉義縣水上鄉衛生所,嘉義縣水上鄉水上村正義路１４５號,嘉義縣水上鄉水上村正義路145號,23.428315,120.3976919,(05)2682059,3860,1851,2020/09/15 21:44:46
2340130012,嘉義縣中埔鄉衛生所,嘉義縣中埔鄉中埔村中埔１３０號之１,嘉義縣中埔鄉中埔村中埔130號之1,23.4255769,120.5227535,(05)2531008,5454,1453,2020/09/15 21:44:46
2340140018,嘉義縣竹崎鄉衛生所,嘉義縣竹崎鄉竹崎村文化路１９－１號,嘉義縣竹崎鄉竹崎村文化路19-1號,23.521732,120.551975,(05)2611264,2330,1616,2020/09/15 21:44:46
2340150014,嘉義縣梅山鄉衛生所,嘉義縣梅山鄉華山路１８號,嘉義縣梅山鄉華山路18號,23.5864217,120.5554486,(05)2621249,1180,515,2020/09/15 21:44:46
2340160010,嘉義縣番路鄉衛生所,嘉義縣番路鄉下坑村菜公店６０號,嘉義縣番路鄉下坑村菜公店60號,23.463354,120.554014,(05)2591148,5015,1979,2020/09/15 21:44:46
2340170016,嘉義縣大埔鄉衛生所,嘉義縣大埔鄉大埔村５３－１號,嘉義縣大埔鄉大埔村53-1號,23.4217861,120.3558415,(05)2521214,5139,834,2020/09/15 21:44:46
2340180012,嘉義縣阿里山鄉衛生所,嘉義縣阿里山鄉樂野村３鄰９７－２號,嘉義縣阿里山鄉樂野村3鄰97-2號,23.4665164,120.7018659,(05)2561573,3393,1280,2020/09/15 21:44:46
2341010019,臺南市新營區衛生所,臺南市新營區大宏里三民路７２號,臺南市新營區大宏里三民路72號,23.307466,120.317153,(06)6329421,3689,1128,2020/09/15 21:44:46
2341020015,臺南市鹽水區衛生所,臺南市鹽水區武廟路１號,臺南市鹽水區武廟路1號,23.3203474,120.2654497,(06)6521041,3885,1170,2020/09/15 21:44:46
2341030011,臺南市白河區衛生所,臺南市白河區永安里國光路５號,臺南市白河區永安里國光路5號,23.352012,120.415777,(06)6852014,4164,1133,2020/09/15 21:44:46
2341040017,臺南市麻豆區衛生所,臺南市麻豆區巷口里興國路１１一１號,臺南市麻豆區巷口里興國路11一1號,23.182027,120.24775,(06)5722215,3429,484,2020/09/15 21:44:46
2341050013,臺南市佳里區衛生所,臺南市佳里區東寧里進學路１５９號,臺南市佳里區東寧里進學路159號,23.1635269,120.177701,(06)7224106,2931,577,2020/09/15 21:44:46
2341060019,臺南市新化區衛生所,臺南市新化區健康路十三鄰１４３號,臺南市新化區健康路十三鄰143號,23.0333796,120.3054016,(06)5905398,4545,1838,2020/09/15 21:44:46
2341070015,臺南市善化區衛生所,臺南市善化區光文里中山路２００號,臺南市善化區光文里中山路200號,23.1327156,120.2999557,(06)5837035,657,119,2020/09/15 21:44:46
2341080011,臺南市學甲區衛生所,臺南市學甲區仁得里建國路３８號１樓,臺南市學甲區仁得里建國路38號1樓,23.2302094,120.1817447,(06)7833359,1730,1213,2020/09/15 21:44:46
2341090017,臺南市柳營區衛生所,臺南市柳營區士林里５４之５號,臺南市柳營區士林里54之5號,23.2786582,120.3107982,(06)6220464,3644,1159,2020/09/15 21:44:46
2341100018,臺南市後壁區衛生所,臺南市後壁區後壁里３號,臺南市後壁區後壁里3號,23.3793522,120.4308511,(06)6872624,3871,1092,2020/09/15 21:44:46
2341110014,臺南市東山區衛生所,臺南市東山區東山里２３６號１樓,臺南市東山區東山里236號1樓,23.3261939,120.4047829,(06)6802618,4007,885,2020/09/15 21:44:46
2341120010,臺南市下營區衛生所,臺南市下營區營前里中山路二段１３７號,臺南市下營區營前里中山路二段137號,23.2315444,120.2623734,(06)6892149,1740,1985,2020/09/15 21:44:46
2341130016,台南市六甲區衛生所,臺南市六甲區二甲里２６鄰中華路１１０號,臺南市六甲區二甲里26鄰中華路110號,23.2246749,120.346997,(06)6982013,2123,1514,2020/09/15 21:44:46
2341140012,臺南市官田區衛生所,臺南市官田區隆田里中山路一段１２８號,臺南市官田區隆田里中山路一段128號,23.1928189,120.3160115,(06)5791493,5860,1428,2020/09/15 21:44:46
2341150018,臺南市大內區衛生所,臺南市大內區大內里２號,臺南市大內區大內里2號,23.1192073,120.3568212,(06)5761044,3748,2180,2020/09/15 21:44:46
2341160014,臺南市西港區衛生所,臺南市西港區西港里中山路３６８號,臺南市西港區西港里中山路368號,23.1234734,120.2033511,(06)7952338,503,1079,2020/09/15 21:44:46
2341170010,臺南市七股區衛生所,臺南市七股區大埕里３７９號,臺南市七股區大埕里379號,23.1453614,120.144496,(06)7872277,5085,1200,2020/09/15 21:44:46
2341180016,臺南市將軍區衛生所,臺南市將軍區忠興里１８５－６號,臺南市將軍區忠興里185-6號,23.2013882,120.1585495,(06)7942007,4760,1024,2020/09/15 21:44:46
2341190012,臺南市北門區衛生所,臺南市北門區北門里港北５０號,臺南市北門區北門里港北50號,23.2702891,120.1251967,(06)7862043,273,530,2020/09/15 21:44:46
2341200013,台南市新市區衛生所,臺南市新市區新市里中興街１２號,臺南市新市區新市里中興街12號,23.0786988,120.2950437,(06)5992504,4374,916,2020/09/15 21:44:46
2341210019,臺南市安定區衛生所,臺南市安定區安定里５９－１號,臺南市安定區安定里59-1號,23.115795,120.2441974,(06)5922022,1746,2430,2020/09/15 21:44:46
2341220015,臺南市山上區衛生所,臺南市山上區山上里３５－２號,臺南市山上區山上里35-2號,23.0985491,120.3581883,(06)5781013,604,2401,2020/09/15 21:44:46
2341230011,臺南市玉井區衛生所,臺南市玉井區玉田里中正路５號,臺南市玉井區玉田里中正路5號,23.1222639,120.4593734,(06)5742275,2919,1553,2020/09/15 21:44:46
2341240017,臺南市楠西區衛生所,臺南市楠西區楠西里中正路２２６號,臺南市楠西區楠西里中正路226號,23.1744224,120.4863955,(06)5751006,4052,1570,2020/09/15 21:44:46
2341250013,台南市南化區衛生所,臺南市南化區南化里２２６－１號,臺南市南化區南化里226-1號,23.1287462,120.2387981,(06)5771139,4167,2011,2020/09/15 21:44:46
2341260019,臺南市左鎮區衛生所,臺南市左鎮區中正里１７２之１５號,臺南市左鎮區中正里172之15號,23.0567783,120.408708,(06)5731114,4655,1147,2020/09/15 21:44:46
2341270015,台南市仁德區衛生所,臺南市仁德區仁德里中山路６０６巷２號,臺南市仁德區仁德里中山路606巷2號,22.9727646,120.2514982,(06)2704153,3755,1770,2020/09/15 21:44:46
2341280011,台南市歸仁區衛生所,臺南市歸仁區中正北路１段１號,臺南市歸仁區中正北路1段1號,22.9677312,120.2943193,(06)2304030,1698,465,2020/09/15 21:44:46
2341290017,台南市關廟區衛生所,臺南市關廟區山西里中正路１０００號,臺南市關廟區山西里中正路1000號,22.9627789,120.327573,(06)5952395,772,229,2020/09/15 21:44:46
2341300018,臺南市龍崎區衛生所,臺南市龍崎區崎頂里新市子１５８號,臺南市龍崎區崎頂里新市子158號,22.966918,120.359124,(06)5941397,2194,1442,2020/09/15 21:44:46
2341310014,臺南市永康區衛生所,臺南市永康區永康里文化路５１號,臺南市永康區永康里文化路51號,23.016505,120.26125,(06)2326507,2304,1330,2020/09/15 21:44:46
2342010013,高雄市鳳山區衛生所,高雄市鳳山區經武路３４巷２號,高雄市鳳山區經武路34巷2號,22.627885,120.363212,(07)7430437,1768,775,2020/09/15 21:44:46
2342020019,高雄市岡山區衛生所,高雄市岡山區壽天里公園路５０號,高雄市岡山區壽天里公園路50號,22.7961195,120.2910096,(07)6212015,3240,1570,2020/09/15 21:44:46
2342030015,高雄市旗山區衛生所,高雄市旗山區中正路１９７號,高雄市旗山區中正路197號,22.890057,120.479968,(07)6612054,6494,1325,2020/09/15 21:44:46
2342040011,高雄市美濃區衛生所,高雄市美濃區美中路２４６號,高雄市美濃區美中路246號,22.8949421,120.541471,(07)6812064,2715,2237,2020/09/15 21:44:46
2342050017,高雄市林園區衛生所,高雄市林園區林園里林園北路186號,高雄市林園區林園里林園北路186號,22.5076023,120.3951579,(07)6412404,4469,924,2020/09/15 21:44:46
2342060013,高雄市大寮區衛生所,高雄市大寮區永芳里進學路１２９巷２－１號,高雄市大寮區永芳里進學路129巷2-1號,22.6044939,120.3937955,(07)7816819,2133,1266,2020/09/15 21:44:46
2342070019,高雄市大樹區衛生所,高雄市大樹區龍目路１５８號,高雄市大樹區龍目路158號,22.6844177,120.4140745,(07)6512935,3876,947,2020/09/15 21:44:46
2342080015,高雄市仁武區衛生所,高雄市仁武區仁武里地政街２３號,高雄市仁武區仁武里地政街23號,22.7008349,120.3516645,(07)3711434,3402,1260,2020/09/15 21:44:46
2342110018,高雄市橋頭區衛生所,高雄市橋頭區橋頭里隆豊路５號,高雄市橋頭區橋頭里隆豊路5號,22.757301,120.305528,(07)6113516,612,1530,2020/09/15 21:44:46
2342120014,高雄市燕巢區衛生所,高雄市燕巢區南燕里中興路２號,高雄市燕巢區南燕里中興路2號,22.7930364,120.3616886,(07)6161148,4068,1310,2020/09/15 21:44:46
2342130010,高雄市田寮區衛生所,高雄市田寮區南安里崗北路３２號,高雄市田寮區南安里崗北路32號,22.8729702,120.3594248,(07)6361504,599,1155,2020/09/15 21:44:46
2342140016,高雄市阿蓮區衛生所,高雄市阿蓮區民生路９４－１號,高雄市阿蓮區民生路94-1號,22.8828801,120.3274698,(07)6317141,200,1381,2020/09/15 21:44:46
2342150012,高雄市路竹區衛生所,高雄市路竹區竹南里國昌路８６巷２２號,高雄市路竹區竹南里國昌路86巷22號,22.8552505,120.2584983,(07)6962449,3492,1080,2020/09/15 21:44:46
2342160018,高雄市湖內區衛生所,高雄市湖內區湖中路２０３號,高雄市湖內區湖中路203號,22.9053108,120.2224189,(07)6993009,3177,971,2020/09/15 21:44:46
2342170014,高雄市茄萣區衛生所,高雄市茄萣區吉定里濱海路二段１號,高雄市茄萣區吉定里濱海路二段1號,22.887911,120.185221,(07)6989275,3915,992,2020/09/15 21:44:46
2342180010,高雄市永安區衛生所,高雄市永安區永安路２６號,高雄市永安區永安路26號,22.8186908,120.2254105,(07)6912015,1791,1613,2020/09/15 21:44:46
2342190016,高雄市彌陀區衛生所,高雄市彌陀區彌仁里中華路一巷五弄一號,高雄市彌陀區彌仁里中華路一巷五弄一號,22.7818827,120.2507711,(07)6175307,1223,598,2020/09/15 21:44:46
2342200017,高雄市梓官區衛生所,高雄市梓官區梓信里公館路４５號,高雄市梓官區梓信里公館路45號,22.7645431,120.2677343,(07)6103050,1350,1350,2020/09/15 21:44:46
2342210013,高雄市六龜區衛生所,高雄市六龜區民治路１６號,高雄市六龜區民治路16號,22.998575,120.633288,(07)6891244,5509,2679,2020/09/15 21:44:46
2342220019,高雄市甲仙區衛生所,高雄市甲仙區和安里中山路５２號,高雄市甲仙區和安里中山路52號,23.0838295,120.5874722,(07)6751029,6637,2550,2020/09/15 21:44:46
2342230015,高雄市杉林區衛生所,高雄市杉林區上平里山仙路９３巷２號,高雄市杉林區上平里山仙路93巷2號,22.9749717,120.5414582,(07)6771319,3393,1170,2020/09/15 21:44:46
2342240011,高雄市內門區衛生所,高雄市內門區觀亭里１６鄰中埔頭２０號,高雄市內門區觀亭里16鄰中埔頭20號,22.9244223,120.4538149,(07)6671088,1323,1460,2020/09/15 21:44:46
2342250017,高雄市茂林區衛生所,高雄市茂林區茂林里茂林巷８－４號,高雄市茂林區茂林里茂林巷8-4號,22.886187,120.663266,(07)6801046,3601,960,2020/09/15 21:44:46
2342260013,高雄市桃源區衛生所,高雄市桃源區桃源里南進巷１８８－１號,高雄市桃源區桃源里南進巷188-1號,23.1588838,120.7642409,(07)6861126,3002,1888,2020/09/15 21:44:46
2342270019,高雄市那瑪夏區衛生所,高雄市那瑪夏區瑪雅里６鄰平和巷２５２號,高雄市那瑪夏區瑪雅里6鄰平和巷252號,23.2334298,120.696097,(07)6701142,3753,2173,2020/09/15 21:44:46
2343010017,屏東縣屏東市衛生所,屏東縣屏東市建國路９２號,屏東縣屏東市建國路92號,22.665133,120.482462,(08)7538701,3494,1348,2020/09/15 21:44:46
2343020013,屏東縣潮州鎮衛生所,屏東縣潮州鎮三共里永坤路１０７號,屏東縣潮州鎮三共里永坤路107號,22.553307,120.542382,(08)7882131,1026,4790,2020/09/15 21:44:46
2343030019,屏東縣東港鎮衛生所,屏東縣東港鎮朝安里新生三路２３號,屏東縣東港鎮朝安里新生三路23號,22.467464,120.445536,(08)8325310,1540,740,2020/09/15 21:44:46
2343040015,屏東縣恆春鎮衛生所,屏東縣恆春鎮城南里文化路７８號,屏東縣恆春鎮城南里文化路78號,22.0031556,120.7474409,(08)8892140,495,1260,2020/09/15 21:44:46
2343050011,屏東縣萬丹鄉衛生所,屏東縣萬丹鄉四維村萬丹路一段５０１號,屏東縣萬丹鄉四維村萬丹路一段501號,22.5949803,120.4886128,(08)7772049,2223,370,2020/09/15 21:44:46
2343060017,屏東縣長治鄉衛生所,屏東縣長治鄉進興村潭頭路３號,屏東縣長治鄉進興村潭頭路3號,22.6766313,120.5265876,(08)7368734,487,1054,2020/09/15 21:44:46
2343070013,屏東縣麟洛鄉衛生所,屏東縣麟洛鄉麟蹄村中山路１５６－１號,屏東縣麟洛鄉麟蹄村中山路156-1號,22.650998,120.5275002,(08)7221152,3444,1314,2020/09/15 21:44:46
2343080019,屏東縣九如鄉衛生所,屏東縣九如鄉九如路二段２４７號,屏東縣九如鄉九如路二段247號,22.736059,120.4891773,(08)7392006,902,1262,2020/09/15 21:44:46
2343090015,屏東縣里港鄉衛生所,屏東縣里港鄉大平村中山路１０３–１號,屏東縣里港鄉大平村中山路103–1號,22.7793433,120.4941784,(08)7751711,2700,1000,2020/09/15 21:44:46
2343100016,屏東縣鹽埔鄉衛生所,屏東縣鹽埔鄉鹽北村勝利路１８７號,屏東縣鹽埔鄉鹽北村勝利路187號,22.760069,120.578127,(08)7932474,927,770,2020/09/15 21:44:46
2343110012,屏東縣高樹鄉衛生所,屏東縣高樹鄉長榮村南昌路１２–２號,屏東縣高樹鄉長榮村南昌路12–2號,22.8169217,120.5941953,(08)7962026,4885,2319,2020/09/15 21:44:46
2343120018,屏東縣萬巒鄉衛生所,屏東縣萬巒鄉萬全村褒忠路１４－２號,屏東縣萬巒鄉萬全村褒忠路14-2號,22.571805,120.574483,(08)7811794,4341,541,2020/09/15 21:44:46
2343130014,屏東縣內埔鄉衛生所,屏東縣內埔鄉內埔村中興路１９１號,屏東縣內埔鄉內埔村中興路191號,22.6125807,120.5691977,(08)7792414,2727,820,2020/09/15 21:44:46
2343140010,屏東縣竹田鄉衛生所,屏東縣竹田鄉竹田村中山路２５號,屏東縣竹田鄉竹田村中山路25號,22.586304,120.543122,(08)7710445,2608,1072,2020/09/15 21:44:46
2343150016,屏東縣新埤鄉衛生所,屏東縣新埤鄉新埤村中正路３８號,屏東縣新埤鄉新埤村中正路38號,22.4702257,120.5500341,(08)7971090,1578,1100,2020/09/15 21:44:46
2343160012,屏東縣枋寮鄉衛生所,屏東縣枋寮鄉枋寮村德興路７７號,屏東縣枋寮鄉枋寮村德興路77號,22.3656905,120.5930069,(08)8782940,2808,1900,2020/09/15 21:44:46
2343170018,屏東縣新園鄉衛生所,屏東縣新園鄉仙吉村仙吉路８９－２號,屏東縣新園鄉仙吉村仙吉路89-2號,22.543585,120.460845,(08)8681293,3991,867,2020/09/15 21:44:46
2343180014,屏東縣崁頂鄉衛生所,屏東縣崁頂鄉崁頂村興農路２９–９號,屏東縣崁頂鄉崁頂村興農路29–9號,22.5147883,120.5071949,(08)8631454,439,1284,2020/09/15 21:44:46
2343190010,屏東縣林邊鄉衛生所,屏東縣林邊鄉光林村和平路４５號,屏東縣林邊鄉光林村和平路45號,22.431504,120.5097562,(08)8752076,2021,1436,2020/09/15 21:44:46
2343200011,屏東縣南州鄉衛生所,屏東縣南州鄉溪南村人和路２３９號,屏東縣南州鄉溪南村人和路239號,22.4862245,120.5030324,(08)8642224,2485,1180,2020/09/15 21:44:46
2343210017,屏東縣佳冬鄉衛生所,屏東縣佳冬鄉六根村佳和路８７－１號,屏東縣佳冬鄉六根村佳和路87-1號,22.414603,120.549859,(08)8662018,2649,394,2020/09/15 21:44:46
2343220013,屏東縣琉球鄉衛生所,屏東縣琉球鄉本福村中山路５１號,屏東縣琉球鄉本福村中山路51號,22.3487421,120.3787633,(08)8612513,4293,1430,2020/09/15 21:44:46
2343230019,屏東縣車城鄉衛生所,屏東縣車城鄉福安村福安路２之３０號,屏東縣車城鄉福安村福安路2之30號,22.0713087,120.711739,(08)8821300,1218,866,2020/09/15 21:44:46
2343240015,屏東縣滿州鄉衛生所,屏東縣滿州鄉滿州村中山路３１號,屏東縣滿州鄉滿州村中山路31號,22.018626,120.838033,(08)8801279,3771,1500,2020/09/15 21:44:46
2343250011,屏東縣枋山鄉衛生所,屏東縣枋山鄉枋山村枋山路９８號,屏東縣枋山鄉枋山村枋山路98號,22.2647981,120.6527144,(08)8761150,2518,1316,2020/09/15 21:44:46
2343260017,屏東縣三地門鄉衛生所,屏東縣三地門鄉三地村行政街４號,屏東縣三地門鄉三地村行政街4號,22.7146128,120.6533956,(08)7991284,1427,1047,2020/09/15 21:44:46
2343270013,屏東縣霧台鄉衛生所,屏東縣霧台鄉霧台村神山巷６８號,屏東縣霧台鄉霧台村神山巷68號,22.7509256,120.7279843,(08)7902232,2127,720,2020/09/15 21:44:46
2343280019,屏東縣瑪家鄉衛生所,屏東縣瑪家鄉北葉村風景巷８６號,屏東縣瑪家鄉北葉村風景巷86號,22.709468,120.6480773,(08)7991164,4365,616,2020/09/15 21:44:46
2343290015,屏東縣泰武鄉衛生所,屏東縣泰武鄉佳平村１７９號,屏東縣泰武鄉佳平村179號,22.592124,120.6327079,(08)7832059,2480,1110,2020/09/15 21:44:46
2343300016,屏東縣來義鄉衛生所,屏東縣來義鄉古樓村中正路９０號,屏東縣來義鄉古樓村中正路90號,22.5258154,120.6319956,(08)7850103,569,1630,2020/09/15 21:44:46
2343310012,屏東縣春日鄉衛生所,屏東縣春日鄉春日村春日路１７６號,屏東縣春日鄉春日村春日路176號,22.3701937,120.6252413,(08)8780358,795,1070,2020/09/15 21:44:46
2343320018,屏東縣獅子鄉衛生所,屏東縣獅子鄉楓林村楓林二巷３１號,屏東縣獅子鄉楓林村楓林二巷31號,22.202124,120.703928,(08)8771324,1915,1156,2020/09/15 21:44:46
2343330014,屏東縣牡丹鄉衛生所,屏東縣牡丹鄉石門村１９號,屏東縣牡丹鄉石門村19號,22.1261502,120.7743059,(08)8831013,4143,940,2020/09/15 21:44:46
2344010011,澎湖縣馬公市第一衛生所,澎湖縣馬公市樹德路３６號,澎湖縣馬公市樹德路36號,23.5689219,119.5670427,(06)9273958,3877,940,2020/09/15 21:44:46
2344011027,澎湖縣馬公市第二衛生所,澎湖縣馬公市鎖港里２４０號,澎湖縣馬公市鎖港里240號,23.5304929,119.6028752,(06)9951354,3700,601,2020/09/15 21:44:46
2344011036,澎湖縣馬公市第三衛生所,澎湖縣馬公市西文里１１８之２號,澎湖縣馬公市西文里118之2號,23.5683195,119.5834888,(06)9211723,2969,1081,2020/09/15 21:44:46
2344020017,澎湖縣湖西鄉衛生所,澎湖縣湖西鄉湖西村１５１－１號,澎湖縣湖西鄉湖西村151-1號,23.583895,119.66134,(06)9921271,4688,1039,2020/09/15 21:44:46
2344030013,澎湖縣白沙鄉衛生所,澎湖縣白沙鄉赤崁村３５９號,澎湖縣白沙鄉赤崁村359號,23.6675224,119.6006196,(06)9931044,1800,880,2020/09/15 21:44:46
2344030022,澎湖縣白沙鄉鳥嶼衛生所,澎湖縣白沙鄉鳥嶼村漁港新村３號,澎湖縣白沙鄉鳥嶼村漁港新村3號,23.6599073,119.6558219,(06)9916092,3281,1965,2020/09/15 21:44:46
2344030031,澎湖縣白沙鄉吉貝衛生所,澎湖縣白沙鄉吉貝村８－１３號,澎湖縣白沙鄉吉貝村8-13號,23.7466491,119.6122444,(06)9911430,3659,1607,2020/09/15 21:44:46
2344040019,澎湖縣西嶼鄉衛生所,澎湖縣西嶼鄉池東村２２２號,澎湖縣西嶼鄉池東村222號,23.5992062,119.5103197,(06)9981115,2842,1169,2020/09/15 21:44:46
2344050015,澎湖縣望安鄉衛生所,澎湖縣望安鄉西安村３６－７號,澎湖縣望安鄉西安村36-7號,23.3618481,119.4973768,(06)9991036,4764,818,2020/09/15 21:44:46
2344050024,澎湖縣望安鄉將軍衛生所,澎湖縣望安鄉將軍村１２鄰將軍澳１之３號,澎湖縣望安鄉將軍村12鄰將軍澳1之3號,23.3644583,119.5246692,(06)9902066,1720,915,2020/09/15 21:44:46
2344060011,澎湖縣七美鄉衛生所,澎湖縣七美鄉中和村埔內５４號,澎湖縣七美鄉中和村埔內54號,23.2041942,119.4308398,(06)9971005,1748,1832,2020/09/15 21:44:46
2345010015,花蓮縣花蓮市衛生所,花蓮縣花蓮市新興路２００號,花蓮縣花蓮市新興路200號,23.9911769,121.6171689,(03)8230232,1403,1144,2020/09/15 21:44:46
2345020011,花蓮縣鳳林鎮衛生所,花蓮縣鳳林鎮公正街８之１號,花蓮縣鳳林鎮公正街8之1號,23.7450281,121.4519667,(03)8761116,4499,532,2020/09/15 21:44:46
2345030017,花蓮縣玉里鎮衛生所,花蓮縣玉里鎮泰昌里中正路１５２號,花蓮縣玉里鎮泰昌里中正路152號,23.336558,121.3149907,(03)8882046,4401,1970,2020/09/15 21:44:46
2345040013,花蓮縣新城鄉衛生所,花蓮縣新城鄉北埔村北埔路１６０號,花蓮縣新城鄉北埔村北埔路160號,24.0308587,121.6052449,(03)8266781,432,1040,2020/09/15 21:44:46
2345050019,花蓮縣吉安鄉衛生所,花蓮縣吉安鄉吉安村吉安路２段１３２號,花蓮縣吉安鄉吉安村吉安路2段132號,23.9739484,121.5636728,(03)8521113,4443,304,2020/09/15 21:44:46
2345060015,花蓮縣壽豐鄉衛生所,花蓮縣壽豐鄉壽豐村公園路２８巷１０號,花蓮縣壽豐鄉壽豐村公園路28巷10號,23.86829,121.507553,(03)8652101,445,1506,2020/09/15 21:44:46
2345070011,花蓮縣光復鄉衛生所,花蓮縣光復鄉大馬村中學街１５８號,花蓮縣光復鄉大馬村中學街158號,23.6719092,121.425862,(03)8701114,4512,1735,2020/09/15 21:44:46
2345090013,花蓮縣瑞穗鄉衛生所,花蓮縣瑞穗鄉瑞穗村民生街７５號,花蓮縣瑞穗鄉瑞穗村民生街75號,23.499772,121.379062,(03)8872045,5350,1162,2020/09/15 21:44:46
2345100014,花蓮縣富里鄉衛生所,花蓮縣富里鄉富里村中山路２０３號,花蓮縣富里鄉富里村中山路203號,23.1785339,121.2489048,(03)8831029,3638,898,2020/09/15 21:44:46
2345110010,花蓮縣秀林鄉衛生所,花蓮縣秀林鄉秀林村１２鄰秀林路８８號,花蓮縣秀林鄉秀林村12鄰秀林路88號,24.1179651,121.6255131,(03)8612122,3555,940,2020/09/15 21:44:46
2345120016,花蓮縣萬榮鄉衛生所,花蓮縣萬榮鄉萬榮村１２號,花蓮縣萬榮鄉萬榮村12號,23.714676,121.410094,(03)8751651,571,207,2020/09/15 21:44:46
2345130012,花蓮縣卓溪鄉衛生所,花蓮縣卓溪鄉卓溪村中正路６５號,花蓮縣卓溪鄉卓溪村中正路65號,23.344294,121.3032846,(03)8882592,189,1496,2020/09/15 21:44:46
2346010019,台東縣台東巿衛生所,臺東縣臺東市大同路５１號,台東縣台東市大同路51號,22.7504549,121.1563071,(089)350757,4397,1430,2020/09/15 21:44:46
2346020015,台東縣成功鎮衛生所,臺東縣成功鎮忠仁里中山東路６４號,台東縣成功鎮忠仁里中山東路64號,23.0999538,121.3795835,(089)851419,3435,1459,2020/09/15 21:44:46
2346030011,臺東縣關山鎮衛生所,臺東縣關山鎮中福里中華路７８號,台東縣關山鎮中福里中華路78號,23.0495504,121.1638815,(089)811042,4383,730,2020/09/15 21:44:46
2346040017,台東縣卑南鄉衛生所,臺東縣卑南鄉太平村和平路１３２號,台東縣卑南鄉太平村和平路132號,22.781914,121.088289,(089)382042,3762,1000,2020/09/15 21:44:46
2346050013,台東縣大武鄉衛生所,臺東縣大武鄉大武村濱海路１００號,台東縣大武鄉大武村濱海路100號,22.3560182,120.9042435,(089)791325,1253,818,2020/09/15 21:44:46
2346060019,台東縣太麻里鄉衛生所,臺東縣太麻里鄉泰和村２鄰民權路６６號,台東縣太麻里鄉泰和村2鄰民權路66號,22.6153072,121.0074171,(089)781220,942,1938,2020/09/15 21:44:46
2346070015,臺東縣東河鄉衛生所,臺東縣東河鄉東河村南東河路１０鄰３００號,臺東縣東河鄉東河村南東河路10鄰300號,22.969899,121.302716,(089)896289,1858,1372,2020/09/15 21:44:46
2346080011,台東縣長濱鄉衛生所,臺東縣長濱鄉長濱村中興路４６號,台東縣長濱鄉長濱村中興路46號,23.318852,121.453891,(089)831022,1638,590,2020/09/15 21:44:46
2346090017,台東縣鹿野鄉衛生所,臺東縣鹿野鄉鹿野村中華路１段４１８號,台東縣鹿野鄉鹿野村中華路1段418號,22.9103341,121.1362874,(089)551074,5437,1564,2020/09/15 21:44:46
2346100018,台東縣池上鄉衛生所,臺東縣池上鄉中山路１０４號,台東縣池上鄉中山路104號,23.1218946,121.2149658,(089)862609,1280,1567,2020/09/15 21:44:46
2346110014,台東縣綠島鄉衛生所,臺東縣綠島鄉中寮村１－１號,台東縣綠島鄉中寮村1-1號,22.673718,121.4698608,(089)672511,4339,700,2020/09/15 21:44:46
2346120010,台東縣延平鄉衛生所,臺東縣延平鄉桃源村昇平路１１號,台東縣延平鄉桃源村昇平路11號,22.9021421,121.0855587,(089)561040,3448,1362,2020/09/15 21:44:46
2346130016,台東縣海端鄉衛生所,臺東縣海端鄉海端村３鄰２９號,台東縣海端鄉海端村3鄰29號,23.0983484,121.1758504,(089)931391,2185,1382,2020/09/15 21:44:46
2346140012,台東縣達仁鄉衛生所,臺東縣達仁鄉安朔村復興路１２２號,台東縣達仁鄉安朔村復興路122號,22.2947624,120.8839199,(089)702209,4175,837,2020/09/15 21:44:46
2346150018,台東縣金峰鄉衛生所,臺東縣金峰鄉賓茂村１鄰１４號,台東縣金峰鄉賓茂村1鄰14號,22.53201,120.9590025,(089)772201,4484,970,2020/09/15 21:44:46
2346160014,台東縣蘭嶼鄉衛生所,臺東縣蘭嶼鄉紅頭村３６號,台東縣蘭嶼鄉紅頭村36號,22.024683,121.555248,(089)732575,5019,1443,2020/09/15 21:44:46
2390010010,金門縣金城鎮衛生所,金門縣金城鎮民權路１４７號,金門縣金城鎮民權路147號,24.4364144,118.3177073,(082)325059,6421,1330,2020/09/15 21:44:46
2390020016,金門縣金沙鎮衛生所,金門縣金沙鎮三民路１６號,金門縣金沙鎮三民路16號,24.4895113,118.4132514,(082)333597,9921,2441,2020/09/15 21:44:46
2390030030,金門縣金湖鎮衛生所,金門縣金湖鎮正義里成功７號之１,金門縣金湖鎮正義里成功7號之1,24.4379262,118.3892013,(082)336662,9643,2157,2020/09/15 21:44:46
2390040518,金門縣金寧鄉衛生所,金門縣金寧鄉盤山村仁愛新屯２之１號,金門縣金寧鄉盤山村仁愛新屯2之1號,24.4467932,118.3432727,(082)325735,6444,1660,2020/09/15 21:44:46
2390050032,金門縣烈嶼鄉衛生所,金門縣烈嶼鄉西口村西方６－５號,金門縣烈嶼鄉西口村西方6-5號,24.435179,118.2395729,(082)362078,1580,900,2020/09/15 21:44:46
2391020010,連江縣北竿鄉衛生所,連江縣北竿鄉塘岐村２５號,連江縣北竿鄉塘岐村25號,26.2231137,119.9963106,(083)655592,4719,875,2020/09/15 21:44:46
2391030016,連江縣莒光鄉西莒衛生所,連江縣莒光鄉青帆村１４－１號,連江縣莒光鄉青帆村14-1號,25.968738,119.936969,(083)689122,6715,1737,2020/09/15 21:44:46
2391030026,連江縣莒光鄉東莒衛生所,連江縣莒光鄉大坪村３０－１號,連江縣莒光鄉大坪村30-1號,25.956994,119.975863,(083)689038,6185,2361,2020/09/15 21:44:46
2391040012,連江縣東引鄉衛生所,連江縣東引鄉中柳村１２３號,連江縣東引鄉中柳村123號,26.3672828,120.490653,(083)677206,4437,1316,2020/09/15 21:44:46
5901010076,榮星藥局,臺北市松山區南京東路４段１３３巷５弄１號,台北市松山區南京東路4段133巷5弄1號,25.0521657,121.5552164,(02)27124696,1800,340,2020/09/15 21:44:46
5901010085,安世藥局,臺北市松山區南京東路４段１３３巷５弄９號,台北市松山區南京東路4段133巷5弄9號,25.052031,121.555512,(02)27133405,4216,1124,2020/09/15 21:44:46
5901010094,明一藥局,臺北市松山區南京東路５段５９巷２８弄２５號１樓,台北市松山區南京東路5段59巷28弄25號1樓,25.0527414,121.5581421,(02)27691654,3566,1158,2020/09/15 21:44:46
5901010165,傑安藥局,臺北市松山區八德路２段４３７巷７弄８號１樓,台北市松山區八德路2段437巷7弄8號1樓,25.0491495,121.5472922,(02)27524155,218,1204,2020/09/15 21:44:46
5901010174,仁弘藥局,臺北市松山區民生東路３段１１３巷２５弄６號１樓,台北市松山區民生東路3段113巷25弄6號1樓,25.0594031,121.5465652,(02)27136764,1609,1300,2020/09/15 21:44:46
5901010290,健全藥局,臺北市松山區民權東路３段１０３巷２０號,台北市松山區民權東路3段103巷20號,25.06324,121.5449102,(02)27128293,4119,1041,2020/09/15 21:44:46
5901010496,瑞昌大藥局,臺北市松山區民權東路３段１０３巷１０號,台北市松山區民權東路3段103巷10號,25.0629676,121.5449167,(02)27151881,2602,1127,2020/09/15 21:44:46
5901010576,合生藥局,臺北市松山區南京東路５段１２３巷４５號１樓,台北市松山區南京東路5段123巷45號1樓,25.0537643,121.5606806,(02)27602932,2456,890,2020/09/15 21:44:46
5901011662,上允藥局,臺北市松山區民生東路５段７８號,台北市松山區民生東路5段78號,25.0583391,121.5590738,(02)27696905,2898,0,2020/09/15 21:44:46
5901011751,德恩藥師藥局,臺北市松山區八德路２段３７８號１樓,台北市松山區八德路2段378號1樓,25.0479729,121.5461396,(02)27782829,2620,743,2020/09/15 21:44:46
5901011760,延壽藥局,臺北市松山區延壽街３２７號,台北市松山區延壽街327號,25.056864,121.560315,(02)27685159,0,8,2020/09/15 21:44:46
5901011975,萬泰藥局,臺北市松山區敦化北路２２２巷３８號,台北市松山區敦化北路222巷38號,25.05992,121.54709,(02)27135891,3297,1042,2020/09/15 21:44:46
5901012383,德川中西藥局,臺北市松山區八德路４段９６號,台北市松山區八德路4段96號,25.0483819,121.5607144,(02)27683399,4469,1360,2020/09/15 21:44:46
5901012409,家音藥局,臺北市松山區民生東路５段７３號,台北市松山區民生東路5段73號,25.0586956,121.5585096,(02)37652080,3676,297,2020/09/15 21:44:46
5901012490,中美藥局,臺北市松山區富錦街５３１號,台北市松山區富錦街531號,25.0612836,121.5654759,(02)27627468,4539,380,2020/09/15 21:44:46
5901012507,康麗藥局,臺北市松山區南京東路３段３０３巷２０號,台北市松山區南京東路3段303巷20號,25.0537514,121.5468678,(02)27174117,461,242,2020/09/15 21:44:46
5901012516,惠登藥局,臺北市松山區民生東路３段１３０巷３４號,台北市松山區民生東路3段130巷34號,25.0562107,121.5460883,(02)25472432,264,1351,2020/09/15 21:44:46
5901012570,予志藥局,臺北市松山區富錦街５２１號,台北市松山區富錦街521號,25.0612613,121.5648611,(02)27623522,1984,1400,2020/09/15 21:44:46
5901012598,婕登藥局,臺北市松山區八德路４段６９９號,台北市松山區八德路4段699號,25.0502152,121.5766219,(02)27482893,2691,1020,2020/09/15 21:44:46
5901012632,晨安藥局,臺北市松山區八德路３段１５５巷２０弄２號,台北市松山區八德路3段155巷20弄2號,25.0491808,121.5552967,(02)25798460,1143,865,2020/09/15 21:44:46
5901012650,銘德藥局,臺北市松山區八德路２段３６６巷２８號,台北市松山區八德路2段366巷28號,25.0472739,121.545917,(02)27511833,4054,1305,2020/09/15 21:44:46
5901012669,政昇藥局,臺北市松山區南京東路５段３５６號１３樓,台北市松山區南京東路5段356號13樓,25.0510985,121.5696912,(02)27560286,3384,930,2020/09/15 21:44:46
5901012712,立康大藥局,臺北市松山區八德路四段２－１號,台北市松山區八德路四段2-1號,25.048046,121.5580144,(02)27471749,3475,1200,2020/09/15 21:44:46
5901012749,躍獅松和藥局,臺北市松山區八德路四段６６６－１號,台北市松山區八德路四段666-1號,25.0499222,121.5760657,(02)27492569,3114,1070,2020/09/15 21:44:46
5901012758,京東藥局,臺北市松山區南京東路五段２７２號,台北市松山區南京東路五段272號,25.0511368,121.5668508,(02)27679503,1800,1320,2020/09/15 21:44:46
5901012767,晨新藥局,臺北市松山區八德路４段９１巷１－１號,台北市松山區八德路4段91巷1-1號,25.0489808,121.5607673,(02)27422951,4364,1147,2020/09/15 21:44:46
5901012918,躍獅京華藥局,臺北市松山區南京東路５段７１號,台北市松山區南京東路5段71號,25.051817,121.559558,(02)27666508,1011,740,2020/09/15 21:44:46
5901012963,綠之家藥局,臺北市松山區延壽街４２８號,台北市松山區延壽街428號,25.0561533,121.556244,(02)25289595,2766,1035,2020/09/15 21:44:46
5901013004,德安藥局,臺北市松山區八德路３段１９５號２樓,台北市松山區八德路3段195號2樓,25.04817,121.5562132,(02)25782670,1789,1160,2020/09/15 21:44:46
5901013095,康采藥局,臺北市松山區南京東路５段２９１巷１７－２號,台北市松山區南京東路5段291巷17-2號,25.0523437,121.5662882,(02)27670271,1843,570,2020/09/15 21:44:46
5901013120,誠康中西藥局,臺北市松山區南京東路５段５９巷３１弄４３號,台北市松山區南京東路5段59巷31弄43號,25.0534271,121.5606766,(02)27619679,8062,575,2020/09/15 21:44:46
5901013139,慶昌藥局,臺北市松山區延吉街２９號,台北市松山區延吉街29號,25.0460055,121.5536806,(02)25770820,3950,500,2020/09/15 21:44:46
5901013148,唯康藥局,臺北市松山區八德路３段２１１號,台北市松山區八德路3段211號,25.0482266,121.5566685,(02)25775000,1160,1023,2020/09/15 21:44:46
5901013175,台北長庚維康藥局,臺北市松山區敦化北路１９９巷２弄１號,台北市松山區敦化北路199巷2弄1號,25.0556924,121.5500334,(02)27199386,2331,840,2020/09/15 21:44:46
5901013200,專品南京藥局,臺北市松山區南京東路４段７３號,台北市松山區南京東路4段73號,25.0519059,121.5532121,(02)25147685,3548,720,2020/09/15 21:44:46
5901013246,芝欣藥局,臺北市松山區八德路３段１４８號,台北市松山區八德路3段148號,25.0480049,121.5548513,(02)25706677,1677,886,2020/09/15 21:44:46
5901013308,立赫敦北藥局,臺北市松山區敦化北路２２２巷２０號,台北市松山區敦化北路222巷20號,25.059515,121.547628,(02)27199277,2916,1185,2020/09/15 21:44:46
5901013326,富景藥局,臺北市松山區三民路１４５號,台北市松山區三民路145號,25.060815,121.563062,(02)27455666,2366,320,2020/09/15 21:44:46
5901013362,啄木鳥藥局,臺北市松山區八德路４段２０９號、２１１號（１、２層）,台北市松山區八德路4段209號、211號(1、2層),25.0491929,121.563948,(02)27422413,5891,480,2020/09/15 21:44:46
5901013371,玖田藥局,臺北市松山區八德路４段６５５號,台北市松山區八德路4段655號,25.0502039,121.5754991,(02)27666578,3375,730,2020/09/15 21:44:46
5901013399,一安正昇藥局,臺北市松山區南京東路５段３４８號,台北市松山區南京東路5段348號,25.05103,121.569163,(02)27680993,3313,7219,2020/09/15 21:44:46
5901013406,美優康藥局,臺北市松山區民生東路４段１１７之１號,台北市松山區民生東路4段117之1號,25.058252,121.553279,(02)27152319,812,1200,2020/09/15 21:44:46
5901013433,杏一延吉藥局,臺北市松山區延吉街３２號,臺北市松山區延吉街32號,25.0461165,121.5534485,(02)25798450,2151,1590,2020/09/15 21:44:46
5901013442,松山八德藥局,臺北市松山區八德路２段４００號,臺北市松山區八德路2段400號,25.0479985,121.5465334,(02)27782773,0,1702,2020/09/15 21:44:46
5901013451,新德大藥局,臺北市松山區饒河街２０４號,臺北市松山區饒河街204號,25.0507089,121.5771354,(02)27673402,0,424,2020/09/15 21:44:46
5901013460,光點延新藥局,臺北市松山區延壽街１０１號,台北市松山區延壽街101號,25.0571903,121.566007,(02)27667795,3689,1330,2020/09/15 21:44:46
5901013497,民生盛康藥局,臺北市松山區民生東路５段２０４號,臺北市松山區民生東路5段204號,25.0582611,121.5649113,(02)27460758,1815,783,2020/09/15 21:44:46
5901013504,杏一台北長庚藥局,臺北市松山區敦化北路１９９巷２弄３號,臺北市松山區敦化北路199巷2弄3號,25.0556007,121.5500346,(02)25149463,765,750,2020/09/15 21:44:46
5901013513,立赫民生藥局,臺北市松山區民生東路４段６８號,臺北市松山區民生東路4段68號,25.0578329,121.552248,(02)27139200,3017,1500,2020/09/15 21:44:46
5901013531,佑全松山南京東藥局,臺北市松山區南京東路５段２９１巷７號,臺北市松山區南京東路5段291巷7號,25.0520418,121.5662419,(02)27687807,5721,709,2020/09/15 21:44:46
5901013540,躍獅敦北藥局,臺北市松山區民生東路４段８０巷５號,臺北市松山區民生東路4段80巷5號,25.0574239,121.553079,27155691,3695,1425,2020/09/15 21:44:46
5901013559,佑翔藥局,臺北市松山區民生東路５段９５號,臺北市松山區民生東路5段95號,25.058836,121.559725,(02)87875070,439,1480,2020/09/15 21:44:46
5901013568,美優康藥局,臺北市松山區民生東路４段１１７之１號,臺北市松山區民生東路4段117之1號,25.058252,121.553279,(02)9999999999,4851,1440,2020/09/15 21:44:46
5901020303,宏恩藥局,臺北市大安區大安路１段１８１號,台北市大安區大安路1段181號,25.0363155,121.5461729,(02)27000956,4532,1410,2020/09/15 21:44:46
5901020376,靜園藥局,臺北市大安區和平東路２段１１８巷５７之１號,台北市大安區和平東路2段118巷57之1號,25.0225425,121.5429022,(02)27336390,2635,1265,2020/09/15 21:44:46
5901020385,延吉大藥局,臺北市大安區延吉街１５３號１樓,台北市大安區延吉街153號1樓,25.0401308,121.5549197,(02)27819227,1429,1150,2020/09/15 21:44:46
5901020465,杏友藥局,臺北市大安區復興南路２段１５１巷２５號,台北市大安區復興南路2段151巷25號,25.0285363,121.5446649,(02)27079451,1241,585,2020/09/15 21:44:46
5901020554,師大藥局,臺北市大安區師大路９９號１樓,台北市大安區師大路99號1樓,25.0227199,121.528547,(02)23623479,1805,258,2020/09/15 21:44:46
5901020563,施寶藥局,臺北市大安區安東街５０－５號１樓,台北市大安區安東街50-5號1樓,25.0427786,121.5424767,(02)27114175,1707,1302,2020/09/15 21:44:46
5901020590,燕福藥局,臺北市大安區羅斯福路３段２８３巷１４弄１４號之３,台北市大安區羅斯福路3段283巷14弄14號之3,25.0182233,121.5325864,(02)23627307,1401,2302,2020/09/15 21:44:46
5901020616,龍護大藥局,臺北市大安區大安路１段２２４巷７號１Ｆ,台北市大安區大安路1段224巷7號1F,25.0341022,121.5459681,(02)23250686,2524,1225,2020/09/15 21:44:46
5901020634,新廣生藥局,臺北市大安區仁愛路４段３４號,台北市大安區仁愛路4段34號,25.0376304,121.5467245,(02)27071221,3224,670,2020/09/15 21:44:46
5901020652,寶德藥局,臺北市大安區樂利路１０５號１Ｆ,台北市大安區樂利路105號1F,25.0251233,121.5524005,(02)27364240,4848,1333,2020/09/15 21:44:46
5901020661,泰佑藥局,臺北市大安區安和路２段７２號１Ｆ,台北市大安區安和路2段72號1F,25.030091,121.5516916,(02)27056841,3207,1000,2020/09/15 21:44:46
5901020670,杏安堂藥局,臺北市大安區忠孝東路４段７７巷３０號１樓,台北市大安區忠孝東路4段77巷30號1樓,25.0424488,121.5471526,(02)27517636,8272,2320,2020/09/15 21:44:46
5901020689,四維藥局,臺北市大安區復興南路２段１５１巷４３號１樓,台北市大安區復興南路2段151巷43號1樓,25.0284697,121.5455043,(02)27094222,4653,750,2020/09/15 21:44:46
5901020698,羅斯福藥局,臺北市大安區羅斯福路３段２８３巷９弄３號,台北市大安區羅斯福路3段283巷9弄3號,25.0189042,121.5316535,(02)23699606,4125,1065,2020/09/15 21:44:46
5901020732,赫慶藥局,臺北市大安區瑞安街２０８巷１１弄５號１樓,台北市大安區瑞安街208巷11弄5號1樓,25.0286741,121.5408008,(02)27063497,5130,600,2020/09/15 21:44:46
5901020858,順天堂藥局,臺北市大安區龍泉街９６號,台北市大安區龍泉街96號,25.0225449,121.529187,(02)23627149,2160,0,2020/09/15 21:44:46
5901020876,大興藥局,臺北市大安區通化街３９巷５０弄１５號１樓,台北市大安區通化街39巷50弄15號1樓,25.030623,121.5555159,(02)27053369,3947,1227,2020/09/15 21:44:46
5901020901,辰安藥局,臺北市大安區大安路１段３１巷２８號,台北市大安區大安路1段31巷28號,25.044069,121.547522,(02)27119536,4287,1340,2020/09/15 21:44:46
5901021248,永誠藥局,臺北市大安區忠孝東路４段２１６巷２５之１號,台北市大安區忠孝東路4段216巷25之1號,25.0400349,121.5530869,(02)27520273,3753,888,2020/09/15 21:44:46
5901021382,建如藥局,臺北市大安區和平東路３段２２８巷１１號１Ｆ,台北市大安區和平東路3段228巷11號1F,25.0217379,121.5543505,(02)27331456,2736,180,2020/09/15 21:44:46
5901022601,生光藥局,臺北市大安區忠孝東路３段２４８巷２號,台北市大安區忠孝東路3段248巷2號,25.0413343,121.5411378,(02)27780862,2755,910,2020/09/15 21:44:46
5901022898,永康藥局,臺北市大安區麗水街６之２號,台北市大安區麗水街6之2號,25.0330617,121.5289929,(02)23279362,3896,1355,2020/09/15 21:44:46
5901023073,世中欣藥局,臺北市大安區永康街２巷８號,台北市大安區永康街2巷8號,25.0331319,121.5293964,(02)23938947,918,1106,2020/09/15 21:44:46
5901023091,加豐藥局,臺北市大安區忠孝東路３段２１６巷３弄１號１樓,台北市大安區忠孝東路3段216巷3弄1號1樓,25.0413013,121.5403055,(02)27219678,3324,1925,2020/09/15 21:44:46
5901023153,崇光藥局,臺北市大安區忠孝東路３段３０５號７樓之３,台北市大安區忠孝東路3段305號7樓之3,25.041874,121.543505,(02)27217958,1320,1852,2020/09/15 21:44:46
5901023215,大愛健康藥局,臺北市大安區敦化南路２段６３巷６５號,台北市大安區敦化南路2段63巷65號,25.031128,121.552013,(02)27092156,2669,1260,2020/09/15 21:44:46
5901023304,麗樺藥師藥局,臺北市大安區麗水街３號,台北市大安區麗水街3號,25.0321839,121.5290071,(02)23952628,3226,510,2020/09/15 21:44:46
5901023313,安和藥局,臺北市大安區安和路１段１０２巷３號,台北市大安區安和路1段102巷3號,25.027688,121.550054,(02)27092349,4490,1583,2020/09/15 21:44:46
5901023331,佑安藥局,臺北市大安區延吉街２３３巷９號,台北市大安區延吉街233巷9號,25.0371032,121.5560183,(02)27069339,1846,608,2020/09/15 21:44:46
5901023386,弘昇藥局,臺北市大安區復興南路１段１０７巷３２號,台北市大安區復興南路1段107巷32號,25.0434971,121.5458343,(02)27110061,3036,1058,2020/09/15 21:44:46
5901023411,長虹藥局,臺北市大安區忠孝東路４段２１６巷 ６３號,台北市大安區忠孝東路4段216巷 63號,25.0382823,121.5530845,(02)27210232,2421,870,2020/09/15 21:44:46
5901023519,惠盈藥局,臺北市大安區辛亥路２段１７１巷３１號,台北市大安區辛亥路2段171巷31號,25.0229897,121.5412185,(02)87321366,4716,1120,2020/09/15 21:44:46
5901023591,一心藥局,臺北市大安區和平東路３段２３８號,台北市大安區和平東路3段238號,25.0218798,121.5549022,(02)27321818,5377,920,2020/09/15 21:44:46
5901023653,信安健康藥局,臺北市大安區仁愛路４段１２２巷５８號,台北市大安區仁愛路4段122巷58號,25.0339292,121.5501149,(02)27084858,3533,328,2020/09/15 21:44:46
5901023680,新富川藥局,臺北市大安區大安路１段５１巷４號,台北市大安區大安路1段51巷4號,25.0430462,121.5464257,(02)27114758,3426,1920,2020/09/15 21:44:46
5901023706,聖英藥局,臺北市大安區仁愛路４段２６６巷１５弄１８號,台北市大安區仁愛路4段266巷15弄18號,25.0364986,121.5539664,(02)27055851,9034,2120,2020/09/15 21:44:46
5901023724,元氣生活健保藥局,臺北市大安區新生南路１段１６１巷１０號,台北市大安區新生南路1段161巷10號,25.0345344,121.5347053,(02)27060580,854,1410,2020/09/15 21:44:46
5901023831,康乃馨藥局,臺北市大安區建國南路１段３２７號,台北市大安區建國南路1段327號,25.0347301,121.5382452,(02)23257097,2120,1580,2020/09/15 21:44:46
5901023886,世康藥局,臺北市大安區延吉街２４６號,台北市大安區延吉街246號,25.0355414,121.5555099,(02)27015758,5514,1110,2020/09/15 21:44:46
5901023902,惠良藥局,臺北市大安區和平東路３段９３－１號,台北市大安區和平東路3段93-1號,25.0246184,121.5506892,(02)27387872,5745,359,2020/09/15 21:44:46
5901024098,杏一瑞安藥局,臺北市大安區瑞安街２０８巷１１弄１號,台北市大安區瑞安街208巷11弄1號,25.0286424,121.5406953,(02)27096710,3475,2150,2020/09/15 21:44:46
5901024114,好安心藥局,臺北市大安區和平東路２段９８之２號,台北市大安區和平東路2段98之2號,25.0249804,121.5414526,(02)23772166,2994,0,2020/09/15 21:44:46
5901024178,天康忠孝藥局,臺北市大安區忠孝東路３段２２３－１號,台北市大安區忠孝東路3段223-1號,25.0419059,121.5400408,(02)77137763,4220,599,2020/09/15 21:44:46
5901024212,中力信義藥局,臺北市大安區信義路４段５１號,台北市大安區信義路4段51號,25.0335193,121.5449642,(02)23250266,1742,530,2020/09/15 21:44:46
5901024221,安居藥局,臺北市大安區安居街１９號,台北市大安區安居街19號,25.0208448,121.5549518,(02)23773537,3790,200,2020/09/15 21:44:46
5901024310,躍獅新生藥局,臺北市大安區和平東路２段２０號,台北市大安區和平東路2段20號,25.02553,121.536196,(02)23623367,3951,620,2020/09/15 21:44:46
5901024347,博大藥局,臺北市大安區安和路２段６５號,台北市大安區安和路2段65號,25.0306834,121.5526488,(02)27027858,2794,0,2020/09/15 21:44:46
5901024427,博昱仁愛藥局,臺北市大安區仁愛路４段６５號,臺北市大安區仁愛路4段65號,25.0382664,121.5468824,(02)87739258,458,540,2020/09/15 21:44:46
5901024472,忠孝康承健保藥局,臺北市大安區復興南路１段１０７巷４號,台北市大安區復興南路1段107巷4號,25.0435607,121.5444149,(02)87733378,1253,1250,2020/09/15 21:44:46
5901024481,微笑藥師藥局,臺北市大安區信義路３段３１巷４號,台北市大安區信義路3段31巷4號,25.033989,121.5343997,(02)27009655,3736,0,2020/09/15 21:44:46
5901024490,明星大藥局,臺北市大安區光復南路４３０之１號,台北市大安區光復南路430之1號,25.036221,121.5573103,(02)27023747,171,610,2020/09/15 21:44:46
5901024525,國泰維康藥局,臺北市大安區仁愛路４段２６６巷１５弄２０號,台北市大安區仁愛路4段266巷15弄20號,25.0365416,121.5540764,(02)27542185,3664,840,2020/09/15 21:44:46
5901024543,奇威藥局,臺北市大安區雲和街９３號,台北市大安區雲和街93號,25.0233329,121.531134,(02)23651110,1602,690,2020/09/15 21:44:46
5901024678,大安健康人生藥局,臺北市大安區信義路４段３４號,台北市大安區信義路4段34號,25.0331085,121.5448084,(02)27025553,5244,840,2020/09/15 21:44:46
5901024696,仁華藥局,臺北市大安區臥龍街１５５號,台北市大安區臥龍街155號,25.0184073,121.551098,(02)27336762,3958,1009,2020/09/15 21:44:46
5901024703,吾家藥局,臺北市大安區信義路４段２６５巷６之１號,台北市大安區信義路4段265巷6之1號,25.0336538,121.5541883,(02)27066425,1755,1314,2020/09/15 21:44:46
5901024712,早安藥局,臺北市大安區建國南路２段１５１巷４２號,台北市大安區建國南路2段151巷42號,25.028657,121.5396337,(02)27002209,3933,1007,2020/09/15 21:44:46
5901024721,麗泰藥局,臺北市大安區復興南路２段１５１巷４號,台北市大安區復興南路2段151巷4號,25.0283234,121.5439689,(02)27079595,2820,600,2020/09/15 21:44:46
5901024758,兆安健保藥局,臺北市大安區通化街１３９號,台北市大安區通化街139號,25.0289655,121.5540561,(02)27363069,2992,230,2020/09/15 21:44:46
5901024767,杏一樂業藥局,臺北市大安區樂業街１６２號,台北市大安區樂業街162號,25.0195744,121.553487,(02)27383194,2075,1544,2020/09/15 21:44:46
5901024810,博興藥局,臺北市大安區四維路１９８巷２８號,台北市大安區四維路198巷28號,25.0265853,121.5476311,(02)23256668,2358,690,2020/09/15 21:44:46
5901024838,昶青藥局,臺北市大安區濟南路３段２２之１號,台北市大安區濟南路3段22之1號,25.0401252,121.5345507,(02)27515678,3633,1203,2020/09/15 21:44:46
5901024856,杏一台北國泰藥局,臺北市大安區仁愛路４段２６６巷１５弄４號,台北市大安區仁愛路4段266巷15弄4號,25.0365113,121.5531805,(02)27011785,3885,650,2020/09/15 21:44:46
5901024865,沛林東區生活藥粧藥局,臺北市大安區敦化南路１段１８７巷１７號,台北市大安區敦化南路1段187巷17號,25.0426462,121.5501393,(02)27763759,0,990,2020/09/15 21:44:46
5901024874,奇異果大安藥局,臺北市大安區大安路１段１９０號,台北市大安區大安路1段190號,25.0357605,121.5459231,(02)23250891,2371,830,2020/09/15 21:44:46
5901024883,躍獅敦和藥局,臺北市大安區和平東路３段１０號,台北市大安區和平東路3段10號,25.0244673,121.547144,(02)23785767,4932,1440,2020/09/15 21:44:46
5901024892,太醫藥局,臺北市大安區師大路１２號,台北市大安區師大路12號,25.0257342,121.5283139,(02)23685125,3339,1380,2020/09/15 21:44:46
5901024909,康維健保藥局,臺北市大安區敦化南路１段３２９巷１５號,台北市大安區敦化南路1段329巷15號,25.034266,121.5491028,(02)27000120,5311,665,2020/09/15 21:44:46
5901024918,康祥藥局,臺北市大安區忠孝東路４段２１６巷２１號,台北市大安區忠孝東路4段216巷21號,25.0401599,121.5530426,(02)27817891,1800,620,2020/09/15 21:44:46
5901024927,高特敦南藥局,臺北市大安區信義路４段１１５號,台北市大安區信義路4段115號,25.0335103,121.5482884,(092)0318305,3985,1978,2020/09/15 21:44:46
5901024945,威康藥局,臺北市大安區和平東路２段２５５之１號,臺北市大安區和平東路2段255之1號,25.025065,121.5437876,(02)27061149,2037,810,2020/09/15 21:44:46
5901090074,慈仁藥局,臺北市大同區歸綏街２６１號１樓,台北市大同區歸綏街261號1樓,25.0583362,121.5101599,(02)25572733,2448,1359,2020/09/15 21:44:46
5901090127,三銘大藥局,臺北市大同區迪化街１段８０號,台北市大同區迪化街1段80號,25.0558132,121.5098871,(02)25583392,2664,1040,2020/09/15 21:44:46
5901090154,柯藥局,臺北市大同區重慶北路３段３３５巷６號,台北市大同區重慶北路3段335巷6號,25.074476,121.514347,(02)25948515,2822,1235,2020/09/15 21:44:46
5901090181,時春藥局,臺北市大同區赤峰街４號,台北市大同區赤峰街4號,25.053594,121.519118,(02)25597918,1773,820,2020/09/15 21:44:46
5901090243,建祥藥局,臺北市大同區寧夏路１７號、１７－１號,台北市大同區寧夏路17號、17-1號,25.0548875,121.5150618,(02)25556476,372,810,2020/09/15 21:44:46
5901090289,正利民藥局,臺北市大同區延平北路３段１０５號,台北市大同區延平北路3段105號,25.0680046,121.5109779,(02)25924842,3699,750,2020/09/15 21:44:46
5901090323,泰元藥局,臺北市大同區哈密街９１號,台北市大同區哈密街91號,25.0730655,121.5146399,(02)25914592,750,650,2020/09/15 21:44:46
5901090369,保慶藥局,臺北市大同區保安街２１號,台北市大同區保安街21號,25.059244,121.512999,(02)25538988,3159,900,2020/09/15 21:44:46
5901091473,快安藥局,臺北市大同區南京西路２８２、２８４號,台北市大同區南京西路282、284號,25.0534849,121.514593,(02)25561925,2502,1260,2020/09/15 21:44:46
5901091544,得意藥師藥局,臺北市大同區延平北路２段２２９號,台北市大同區延平北路2段229號,25.0602879,121.511516,(02)25534294,853,775,2020/09/15 21:44:46
5901091624,健康美藥局,臺北市大同區民族西路１６５號,台北市大同區民族西路165號,25.068752,121.515552,(02)25976707,4011,689,2020/09/15 21:44:46
5901091688,宏泰藥師藥局,臺北市大同區酒泉街１３１號,台北市大同區酒泉街131號,25.0721108,121.5144812,(02)25957025,4087,423,2020/09/15 21:44:46
5901091759,儷安藥局,臺北市大同區錦西街５３巷１６號,台北市大同區錦西街53巷16號,25.0607131,121.5158506,(02)25578033,3366,384,2020/09/15 21:44:46
5901091820,富康藥局,臺北市大同區延平北路２段１２６號,台北市大同區延平北路2段126號,25.057347,121.51145,(02)25537782,2735,1170,2020/09/15 21:44:46
5901091857,佳禾藥局,臺北市大同區大龍街２６２號,台北市大同區大龍街262號,25.0705964,121.5158154,(02)25953806,3376,886,2020/09/15 21:44:46
5901091884,躍獅雙蓮藥局,臺北市大同區涼州街４號,台北市大同區涼州街4號,25.0606907,121.514073,(02)25537551,3095,759,2020/09/15 21:44:46
5901091973,延平新聖安藥局,臺北市大同區延平北路３段３５號,台北市大同區延平北路3段35號,25.0647875,121.5112046,(02)25923399,3355,835,2020/09/15 21:44:46
5901091991,德芳藥局,臺北市大同區民生西路９１號,台北市大同區民生西路91號,25.0576075,121.519383,(02)25576869,3545,950,2020/09/15 21:44:46
5901092014,旭豐藥局,臺北市大同區昌吉街９６號,台北市大同區昌吉街96號,25.0658039,121.5151341,(02)25853880,3307,1080,2020/09/15 21:44:46
5901092041,酒泉春天藥局,臺北市大同區酒泉街９４號、９４號２樓,台北市大同區酒泉街94號、94號2樓,25.0718739,121.5145681,(02)25977932,877,1189,2020/09/15 21:44:46
5901092050,中興聯合藥局,臺北市大同區鄭州路１２７號（實際營業地址：１樓）,台北市大同區鄭州路127號(實際營業地址:1樓),25.050375,121.510796,(02)25502952,4477,772,2020/09/15 21:44:46
5901092069,躍獅遠東藥局,臺北市大同區南京西路３７４號（實際營業地址：１樓）,台北市大同區南京西路374號(實際營業地址:1樓),25.05369,121.510661,(02)25594835,4073,520,2020/09/15 21:44:46
5901092078,大同民生藥局,臺北市大同區民生西路１２８，１３０號,"台北市大同區民生西路128,130號",25.0570837,121.5155535,(02)25558886,1500,2650,2020/09/15 21:44:46
5901092087,躍獅文昌藥局,臺北市大同區民生西路１０８號（實際營業：一層）,臺北市大同區民生西路108號(實際營業:一層),25.05739,121.5196916,(02)25586189,3366,493,2020/09/15 21:44:46
5901092096,春鄰藥局,臺北市大同區長安西路３５號（實際營業樓層：１層）,臺北市大同區長安西路35號(實際營業樓層:1層),25.0504011,121.5196949,25526289,1800,970,2020/09/15 21:44:46
5901092103,新聖安藥局,臺北市大同區昌吉街１３０號,臺北市大同區昌吉街130號,25.0658872,121.5141875,(02)25977877,4199,959,2020/09/15 21:44:46
5901100057,百源堂大藥局,臺北市中山區長安東路２段４７－５號,台北市中山區長安東路2段47-5號,25.0486048,121.5322447,(02)25364362,3344,830,2020/09/15 21:44:46
5901100066,名祥藥局,臺北市中山區龍江路１６６號,台北市中山區龍江路166號,25.055028,121.540275,(02)25036265,2940,1524,2020/09/15 21:44:46
5901100155,大信藥局,臺北市中山區林森北路１５９巷６號,台北市中山區林森北路159巷6號,25.051657,121.525509,(02)25719080,1219,1402,2020/09/15 21:44:46
5901100244,定好大藥局,臺北市中山區農安街１２５巷３４號,台北市中山區農安街125巷34號,25.0659769,121.5297073,(02)25946788,1595,1224,2020/09/15 21:44:46
5901100333,明美藥局,臺北市中山區長春路６９號,台北市中山區長春路69號,25.0550473,121.5266067,(02)25365419,2888,1218,2020/09/15 21:44:46
5901100342,順泰藥局,臺北市中山區錦州街２６６號,台北市中山區錦州街266號,25.060218,121.5347213,(02)25038916,1309,80,2020/09/15 21:44:46
5901100422,滿順藥局,臺北市中山區伊通街５４號１樓,台北市中山區伊通街54號1樓,25.0514442,121.534634,(02)25075283,1919,0,2020/09/15 21:44:46
5901100431,長生藥局,臺北市中山區松江路３６２巷５５號１樓,台北市中山區松江路362巷55號1樓,25.062062,121.5312564,(02)25816210,4012,1094,2020/09/15 21:44:46
5901100440,優豐藥局,臺北市中山區民生東路１段３２號,台北市中山區民生東路1段32號,25.0578781,121.524153,(02)25602565,2518,1283,2020/09/15 21:44:46
5901100495,能康藥局,臺北市中山區長春路４６號,台北市中山區長春路46號,25.0548257,121.5255948,(02)25429426,2642,999,2020/09/15 21:44:46
5901100628,貢玄藥局,臺北市中山區錦州街２０７號,台北市中山區錦州街207號,25.0604415,121.5318562,(02)25637847,5333,490,2020/09/15 21:44:46
5901100664,阿里藥局,臺北市中山區錦州街２５１號,台北市中山區錦州街251號,25.0604586,121.5342898,(02)25020638,2785,595,2020/09/15 21:44:46
5901100717,榮昌藥局,臺北市中山區雙城街１７－３號,台北市中山區雙城街17-3號,25.0646459,121.5244458,(02)25964593,5615,1560,2020/09/15 21:44:46
5901100735,華友藥局,臺北市中山區龍江路３５６巷２７號－１,台北市中山區龍江路356巷27號-1,25.0661127,121.5398323,(02)25007159,5,5,2020/09/15 21:44:46
5901100771,良佑藥局,臺北市中山區撫順街６－２號１樓,台北市中山區撫順街6-2號1樓,25.063618,121.521553,(02)25916402,3431,1383,2020/09/15 21:44:46
5901101072,長青藥局,臺北市中山區興安街５５號１樓,台北市中山區興安街55號1樓,25.056287,121.541846,(02)25053160,954,1307,2020/09/15 21:44:46
5901101161,晏晟藥局,臺北市中山區林森北路６２５號,台北市中山區林森北路625號,25.066984,121.525895,(02)25851445,4713,924,2020/09/15 21:44:46
5901101205,大直藥局,臺北市中山區北安路６１７號１樓,台北市中山區北安路617號1樓,25.0827799,121.548808,(02)25320522,1361,0,2020/09/15 21:44:46
5901101250,美日藥局,臺北市中山區天津街６６號１樓,台北市中山區天津街66號1樓,25.0514002,121.5232719,(02)25631662,1814,890,2020/09/15 21:44:46
5901101321,文德藥局,臺北市中山區龍江路３５６巷１９號１樓,台北市中山區龍江路356巷19號1樓,25.0661081,121.5400869,(02)25181178,3685,810,2020/09/15 21:44:46
5901101509,永直藥局,臺北市中山區北安路５９５巷２弄６號,台北市中山區北安路595巷2弄6號,25.0819102,121.5482996,(02)85098059,911,990,2020/09/15 21:44:46
5901101536,展佑藥局,臺北市中山區長春路１４６－１號,台北市中山區長春路146-1號,25.0547209,121.5317037,(02)25232803,1782,0,2020/09/15 21:44:46
5901101607,蓁榛健康生活藥局,臺北市中山區合江街１００－２號１樓,台北市中山區合江街100-2號1樓,25.0585071,121.5390151,(02)25099333,2178,400,2020/09/15 21:44:46
5901101625,中崙藥局,臺北市中山區八德路２段３０７號,台北市中山區八德路2段307號,25.047402,121.542655,(02)27114971,834,1058,2020/09/15 21:44:46
5901101652,祥泰藥局,臺北市中山區林森北路１３６號,台北市中山區林森北路136號,25.0514663,121.5249877,(02)25313097,2972,720,2020/09/15 21:44:46
5901101910,嘉恩藥局,臺北市中山區錦州街３２１號,台北市中山區錦州街321號,25.0603531,121.5385988,(02)25181418,129,1125,2020/09/15 21:44:46
5901101929,樂活苑藥局,臺北市中山區北安路５４６號１樓,台北市中山區北安路546號1樓,25.080118,121.548022,(02)25323296,3411,590,2020/09/15 21:44:46
5901101992,大愛藥師藥局,臺北市中山區吉林路２５５號１樓,台北市中山區吉林路255號1樓,25.0616698,121.5304286,(02)25424723,2595,2121,2020/09/15 21:44:46
5901102015,久大藥局,臺北市中山區林森北路４８０號,台北市中山區林森北路480號,25.0612661,121.5254246,(02)25111594,2274,721,2020/09/15 21:44:46
5901102408,康林藥局,臺北市中山區興安街１０５號,台北市中山區興安街105號,25.0562326,121.543811,(02)25171867,3549,380,2020/09/15 21:44:46
5901102417,民生興安藥局,臺北市中山區民生東路３段９０－１號,台北市中山區民生東路3段90-1號,25.057454,121.543577,(02)25018310,4697,1730,2020/09/15 21:44:46
5901102444,啟美藥師藥局,臺北市中山區錦州街２８２號,台北市中山區錦州街282號,25.0602222,121.535272,(02)25178032,4086,1140,2020/09/15 21:44:46
5901102515,華康藥局,臺北市中山區民生西路３巷２之１號,台北市中山區民生西路3巷2之1號,25.0592443,121.5217056,(02)25211772,3304,1300,2020/09/15 21:44:46
5901102560,龍江藥局,臺北市中山區龍江路３５６巷１４號,台北市中山區龍江路356巷14號,25.0658757,121.5402883,(02)25023724,3829,1071,2020/09/15 21:44:46
5901102597,德惠藥局,臺北市中山區德惠街１２２號,台北市中山區德惠街122號,25.0664745,121.529973,(02)25971131,2622,817,2020/09/15 21:44:46
5901102677,興康源藥局,臺北市中山區中山北路１段１４０巷８號,台北市中山區中山北路1段140巷8號,25.0561769,121.522992,(02)25311248,868,0,2020/09/15 21:44:46
5901102748,淮濟藥師藥局,臺北市中山區北安路５７０號〈實際營業地址：１樓及地下１樓〉,台北市中山區北安路570號〈實際營業地址:1樓及地下1樓〉,25.080761,121.548559,(02)85098636,48,1140,2020/09/15 21:44:46
5901102828,逸帆藥局,臺北市中山區錦州街１８９號,台北市中山區錦州街189號,25.060478,121.5311387,(02)25222323,4023,1810,2020/09/15 21:44:46
5901102837,正傑健保藥局,臺北市中山區長安東路２段１８１號,台北市中山區長安東路2段181號,25.0484442,121.5425594,(02)27310181,4340,1480,2020/09/15 21:44:46
5901102855,錦西春天生活藥局,臺北市中山區錦西街１０號,台北市中山區錦西街10號,25.0602122,121.5215533,(02)25312658,2975,719,2020/09/15 21:44:46
5901102873,盛康藥局,臺北市中山區吉林路３９９號,台北市中山區吉林路399號,25.0658617,121.5304887,(02)25969580,7157,0,2020/09/15 21:44:46
5901102891,中山藥局,臺北市中山區林森北路１２８號,臺北市中山區林森北路128號,25.0512752,121.5250318,(02)25236979,2660,1370,2020/09/15 21:44:46
5901102962,中興藥局,臺北市中山區長安東路２段２２６號,台北市中山區長安東路2段226號,25.0480813,121.5427327,(02)27774628,1583,1280,2020/09/15 21:44:46
5901102971,保德明水藥局,臺北市中山區北安路６０８巷４弄１號,台北市中山區北安路608巷4弄1號,25.0819149,121.5492851,(02)85097769,2966,10,2020/09/15 21:44:46
5901102999,廣福中西藥局,臺北市中山區錦州街４０６號,台北市中山區錦州街406號,25.060041,121.541659,(02)25189489,0,60,2020/09/15 21:44:46
5901103030,錦康活力藥局,臺北市中山區民生東路２段１４７巷１１弄１號地下,台北市中山區民生東路2段147巷11弄1號地下,25.0600652,121.5349725,(02)25158282,10058,650,2020/09/15 21:44:46
5901103110,大直健康藥局,臺北市中山區北安路５９１號,台北市中山區北安路591號,25.081959,121.548607,(02)25323310,533,1237,2020/09/15 21:44:46
5901103183,OK藥師藥局,臺北市中山區興安街９５號,台北市中山區興安街95號,25.0562013,121.5433366,(02)25170068,7,590,2020/09/15 21:44:46
5901103192,昶青林森藥局,臺北市中山區林森北路１１９巷５２號,台北市中山區林森北路119巷52號,25.0502533,121.5269356,(02)25639939,2112,1307,2020/09/15 21:44:46
5901103209,麗恩藥局,臺北市中山區林森北路５７５之５號,台北市中山區林森北路575之5號,25.0650625,121.5258144,(02)25981982,1808,212,2020/09/15 21:44:46
5901103227,建誠中西藥局,臺北市中山區龍江路３８５之１號,台北市中山區龍江路385之1號,25.0650308,121.5411071,(02)25158608,2599,1600,2020/09/15 21:44:46
5901103236,誠意中西藥局,臺北市中山區林森北路６１３號,台北市中山區林森北路613號,25.0664371,121.525879,(02)25950951,4166,1830,2020/09/15 21:44:46
5901103272,長安藥局,臺北市中山區長安東路２段１７１－３號,台北市中山區長安東路2段171-3號,25.0484073,121.5417697,(02)27772740,3386,1140,2020/09/15 21:44:46
5901103325,仁一藥局,臺北市中山區林森北路５２０號,台北市中山區林森北路520號,25.0623023,121.5254501,(02)25711742,1973,979,2020/09/15 21:44:46
5901103334,大直小太陽藥局,臺北市中山區北安路６０７之１號,台北市中山區北安路607之1號,25.0824009,121.54876,(02)85093208,1216,1760,2020/09/15 21:44:46
5901103343,王中興藥局,臺北市中山區龍江路２７３號,台北市中山區龍江路273號,25.0595529,121.5408271,(02)25034281,2272,1429,2020/09/15 21:44:46
5901103352,美康正康藥局,臺北市中山區北安路６１６之１號、６１８號２樓之１,台北市中山區北安路616之1號、618號2樓之1,25.08238,121.54906,(02)25323077,3843,1380,2020/09/15 21:44:46
5901103405,大直永安藥局,臺北市中山區北安路５６７之２號,台北市中山區北安路567之2號,25.080666,121.548103,(02)25332125,2285,484,2020/09/15 21:44:46
5901103414,元宏藥局,臺北市中山區北安路４５８巷４１弄４９號,台北市中山區北安路458巷41弄49號,25.079389,121.546461,(02)25339728,2575,1083,2020/09/15 21:44:46
5901103423,農安藥局,臺北市中山區農安街１８之１號,台北市中山區農安街18之1號,25.0648,121.524637,(02)25959293,1692,276,2020/09/15 21:44:46
5901103469,聖晨藥局,臺北市中山區農安街１４０號,台北市中山區農安街140號,25.0647035,121.5321111,(02)25960359,2936,1518,2020/09/15 21:44:46
5901103496,杏一龍錦藥局,臺北市中山區龍江路２６４號,台北市中山區龍江路264號,25.0601207,121.5405797,(02)25174618,2489,3013,2020/09/15 21:44:46
5901103512,大樹龍江藥局,臺北市中山區龍江路２４２號,台北市中山區龍江路242號,25.0588899,121.5405268,(02)25035666,6102,4070,2020/09/15 21:44:46
5901103521,中華藥局,臺北市中山區農安街４５之１號,台北市中山區農安街45之1號,25.0649835,121.5265509,(02)25997888,4,776,2020/09/15 21:44:46
5901103530,農安盛康藥局,臺北市中山區農安街２６７號,台北市中山區農安街267號,25.0648427,121.5358051,(02)25038205,2158,1843,2020/09/15 21:44:46
5901103549,康廷藥局,臺北市中山區北安路６１１號,台北市中山區北安路611號,25.08253,121.548759,(02)25335890,144,776,2020/09/15 21:44:46
5901103558,佳頤中西藥局,臺北市中山區長春路１４７之１號,台北市中山區長春路147之1號,25.055056,121.532352,(02)25641479,5151,470,2020/09/15 21:44:46
5901103585,禾全藥局,臺北市中山區龍江路３３２號,台北市中山區龍江路332號,25.0653083,121.54087,(02)25165721,3807,840,2020/09/15 21:44:46
5901103601,安悅藥局,臺北市中山區吉林路１８９號,台北市中山區吉林路189號,25.059731,121.5303451,(02)25419879,2862,1070,2020/09/15 21:44:46
5901103629,十二願藥局,臺北市中山區林森北路３０９號,臺北市中山區林森北路309號,25.055939,121.525619,25311223,2852,460,2020/09/15 21:44:46
5901103638,興耀生活藥局,臺北市中山區林森北路４０５號（實際營業樓層：一層）,臺北市中山區林森北路405號(實際營業樓層:一層),25.059485,121.5256908,25818210,0,3139,2020/09/15 21:44:46
5901103647,禾康藥局,臺北市中山區植福路２９６號（實際營業地址：１層）,臺北市中山區植福路296號(實際營業地址:1層),25.0811752,121.5608385,26562156,5256,1620,2020/09/15 21:44:46
5901110080,葛蘭素藥局,臺北市內湖區內湖路２段１０３巷１２８號１樓,台北市內湖區內湖路2段103巷128號1樓,25.0844975,121.5808274,(02)27997824,6,925,2020/09/15 21:44:46
5901110133,泰成藥局,臺北市內湖區內湖路３段１３５號１樓,台北市內湖區內湖路3段135號1樓,25.08684,121.589838,(02)27921231,2762,877,2020/09/15 21:44:46
5901110268,赫得藥局,臺北市內湖區康樂街７２巷１７弄４號１Ｆ,台北市內湖區康樂街72巷17弄4號1F,25.0697377,121.6178195,(02)26328642,4700,480,2020/09/15 21:44:46
5901110302,富盛藥局,臺北市內湖區成功路４段６１巷２５弄１２號１樓,台北市內湖區成功路4段61巷25弄12號1樓,25.0802968,121.5926896,(02)27908667,3213,1470,2020/09/15 21:44:46
5901110311,永安藥局,臺北市內湖區文德路２１０巷３０弄４８號,台北市內湖區文德路210巷30弄48號,25.0772673,121.5851461,(02)26586658,1386,1818,2020/09/15 21:44:46
5901110339,富山藥局,臺北市內湖區麗山街３６４巷２號１樓,台北市內湖區麗山街364巷2號1樓,25.081681,121.5728766,(02)27996446,2032,30,2020/09/15 21:44:46
5901110393,明湖藥局,臺北市內湖區東湖路７巷２７號１Ｆ,台北市內湖區東湖路7巷27號1F,25.0697568,121.6125385,(02)26313515,2205,340,2020/09/15 21:44:46
5901110446,清白藥局,臺北市內湖區東湖路１０８號,台北市內湖區東湖路108號,25.0682956,121.6155941,(02)26305743,45,0,2020/09/15 21:44:46
5901110624,宏光藥局,臺北市內湖區成功路２段２２１號１樓,台北市內湖區成功路2段221號1樓,25.0673939,121.5909162,(02)27919068,4401,1360,2020/09/15 21:44:46
5901111863,杏佳藥局,臺北市內湖區康寧路１段５１號,台北市內湖區康寧路1段51號,25.0804083,121.592064,(02)27915726,1422,663,2020/09/15 21:44:46
5901111890,安康藥局,臺北市內湖區安康路４８２號,台北市內湖區安康路482號,25.0678977,121.6159538,(02)26327675,74,0,2020/09/15 21:44:46
5901111934,至康藥局,臺北市內湖區內湖路１段７３７巷１９弄１號,台北市內湖區內湖路1段737巷19弄1號,25.0793009,121.5786,(02)26580022,2659,832,2020/09/15 21:44:46
5901112011,文新藥局,臺北市內湖區文湖街７－５號１樓,台北市內湖區文湖街7-5號1樓,25.0854194,121.5598567,(02)87978865,2086,500,2020/09/15 21:44:46
5901112100,盧狄聯合藥局,臺北市內湖區康寧路３段１８９巷５７號,台北市內湖區康寧路3段189巷57號,25.0712936,121.6128936,(02)26308897,2278,0,2020/09/15 21:44:46
5901112413,維安藥局,臺北市內湖區成功路３段１７４巷２３號,台北市內湖區成功路3段174巷23號,25.081503,121.590726,(02)27944520,279,0,2020/09/15 21:44:46
5901112593,康健藥局,臺北市內湖區康樂街８０號,台北市內湖區康樂街80號,25.0702198,121.6188382,(02)26305825,4887,1580,2020/09/15 21:44:46
5901112600,匯安藥局,臺北市內湖區內湖路１段７０３之１號,台北市內湖區內湖路1段703之1號,25.0797015,121.5774774,(02)26579255,3366,822,2020/09/15 21:44:46
5901112682,富康東湖藥局,臺北市內湖區東湖路１１９巷４９弄１６號,台北市內湖區東湖路119巷49弄16號,25.0699404,121.6170271,(02)26323222,1936,130,2020/09/15 21:44:46
5901112726,高昱藥局,臺北市內湖區陽光街３２１巷２６號２樓之１５,台北市內湖區陽光街321巷26號2樓之15,25.0723847,121.5786241,(02)87519962,76,400,2020/09/15 21:44:46
5901112780,樂康藥妝藥局,臺北市內湖區文德路１１７號,台北市內湖區文德路117號,25.0787198,121.5840491,(02)26562110,2154,1725,2020/09/15 21:44:46
5901112824,思恩藥局,臺北市內湖區成功路４段６１巷２６號,台北市內湖區成功路4段61巷26號,25.0812365,121.5932362,(02)27965808,2578,879,2020/09/15 21:44:46
5901112842,早安元氣藥局,臺北市內湖區成功路４段５３號１樓,台北市內湖區成功路4段53號1樓,25.0816365,121.5921395,(02)27925994,1775,300,2020/09/15 21:44:46
5901112860,展恩藥局,臺北市內湖區民權東路６段１３６巷４號,台北市內湖區民權東路6段136巷4號,25.0686315,121.5876772,(02)27953041,3493,895,2020/09/15 21:44:46
5901112879,壹零捌藥局,臺北市內湖區成功路４段３４４號,台北市內湖區成功路4段344號,25.0848269,121.5996205,(02)27910061,4297,1160,2020/09/15 21:44:46
5901112995,昇龍藥局,臺北市內湖區東湖路１５１號,台北市內湖區東湖路151號,25.0681414,121.6173369,(02)26316783,1401,0,2020/09/15 21:44:46
5901113018,桔子藥局,臺北市內湖區內湖路２段３３３號,台北市內湖區內湖路2段333號,25.083312,121.591573,(02)27930052,3468,1439,2020/09/15 21:44:46
5901113027,晟安藥局,臺北市內湖區金龍路１３５號,台北市內湖區金龍路135號,25.0859626,121.5902237,(02)87919320,2842,494,2020/09/15 21:44:46
5901113081,宜昇優良藥局,臺北市內湖區康寧路３段１６５巷２３弄５號,台北市內湖區康寧路3段165巷23弄5號,25.0715907,121.6120983,(02)26327817,3489,480,2020/09/15 21:44:46
5901113143,躍獅寶湖藥局,臺北市內湖區民權東路６段１２３巷２８號,台北市內湖區民權東路6段123巷28號,25.0701002,121.5927877,(02)87928335,2845,1053,2020/09/15 21:44:46
5901113198,傑昇藥局,臺北市內湖區內湖路２段２２７號,台北市內湖區內湖路2段227號,25.0818764,121.5890397,(02)27925957,4030,734,2020/09/15 21:44:46
5901113205,新安健保藥局,臺北市內湖區新明路４０２號,台北市內湖區新明路402號,25.0547673,121.5799493,(02)27932289,1705,842,2020/09/15 21:44:46
5901113250,大內湖藥局,臺北市內湖區成功路４段１２號,台北市內湖區成功路4段12號,25.0811616,121.591129,(02)27956286,531,301,2020/09/15 21:44:46
5901113269,樂齡藥師藥局,臺北市內湖區內湖路３段１０３號,台北市內湖區內湖路3段103號,25.086405,121.59085,(02)27919707,3565,1226,2020/09/15 21:44:46
5901113296,喜越藥局,臺北市內湖區內湖路１段２８５巷５９弄７號,台北市內湖區內湖路1段285巷59弄7號,25.0837832,121.5671703,(02)26271955,268,690,2020/09/15 21:44:46
5901113312,江南大藥局,臺北市內湖區文德路２２巷９弄５６號,台北市內湖區文德路22巷9弄56號,25.076646,121.579122,(02)26595430,4477,540,2020/09/15 21:44:46
5901113330,躍獅大湖藥局,臺北市內湖區成功路４段３２９號,台北市內湖區成功路4段329號,25.0844696,121.599167,(02)27945376,5165,1513,2020/09/15 21:44:46
5901113349,澴山藥局,臺北市內湖區環山路１段４號,台北市內湖區環山路1段4號,25.0829065,121.5652904,(02)87978793,3618,1236,2020/09/15 21:44:46
5901113367,瑞暉藥局,臺北市內湖區文德路１０５號,台北市內湖區文德路105號,25.0787843,121.5836364,(02)26276828,3209,680,2020/09/15 21:44:46
5901113376,內湖藥局,臺北市內湖區康寧路１段１１６號,台北市內湖區康寧路1段116號,25.0794499,121.593333,(02)27940545,5985,2000,2020/09/15 21:44:46
5901113385,躍獅康成藥局,臺北市內湖區成功路４段６１巷１１號,台北市內湖區成功路4段61巷11號,25.0813778,121.5928648,(02)87922031,4899,640,2020/09/15 21:44:46
5901113394,富康文德藥局,臺北市內湖區文德路２２巷２７弄４號,台北市內湖區文德路22巷27弄4號,25.0765847,121.5800488,(02)26272000,2631,1790,2020/09/15 21:44:46
5901113401,躍獅麗湖藥局,臺北市內湖區內湖路１段４０１之１號,台北市內湖區內湖路1段401之1號,25.0818773,121.5704497,(02)26276160,3105,1030,2020/09/15 21:44:46
5901113438,晶龍藥局,臺北市內湖區成功路４段２１８號,台北市內湖區成功路4段218號,25.084613,121.596074,(02)27956255,4695,1770,2020/09/15 21:44:46
5901113456,佑全內湖康寧藥局,臺北市內湖區康寧路３段３９號、３９號２樓、４１號、４３號,台北市內湖區康寧路3段39號、39號2樓、41號、43號,25.072653,121.6077412,(02)26346578,3688,660,2020/09/15 21:44:46
5901113509,安安藥局,臺北市內湖區康寧路１段４２號,台北市內湖區康寧路1段42號,25.0691104,121.6119499,(02)87912187,83,1512,2020/09/15 21:44:46
5901113536,原大藥局,臺北市內湖區內湖路１段７３７巷５０弄５號,台北市內湖區內湖路1段737巷50弄5號,25.080644,121.5788451,(02)26596358,1823,138,2020/09/15 21:44:46
5901113545,和康健保藥局,臺北市內湖區文德路６６巷４１號,台北市內湖區文德路66巷41號,25.0772384,121.5818332,(02)27997202,4120,851,2020/09/15 21:44:46
5901113554,葫光藥局,臺北市內湖區康寧路３段５４巷６號,台北市內湖區康寧路3段54巷6號,25.0716781,121.609053,(02)26336611,1832,0,2020/09/15 21:44:46
5901113563,耀元藥局,臺北市內湖區康樂街１５０號,台北市內湖區康樂街150號,25.0725774,121.6192283,(02)26337369,4780,1466,2020/09/15 21:44:46
5901113572,西湖藥局,臺北市內湖區內湖路１段３５５號,臺北市內湖區內湖路1段355號,25.0822149,121.5692648,26279291,1849,260,2020/09/15 21:44:46
5901113581,加一藥師藥局,臺北市內湖區星雲街２４號,臺北市內湖區星雲街24號,25.0780604,121.5907947,87912653,7043,160,2020/09/15 21:44:46
5901113590,維安藥局,臺北市內湖區成功路３段１７４巷２３號,臺北市內湖區成功路3段174巷23號,25.081503,121.590726,(02)27944520,2054,512,2020/09/15 21:44:46
5901113607,加一藥師藥局,臺北市內湖區星雲街２４號,臺北市內湖區星雲街24號,25.0780604,121.5907947,(02)87912653,0,130,2020/09/15 21:44:46
5901120022,旭村藥局,臺北市南港區興華路１１２號,台北市南港區興華路112號,25.0566306,121.6055439,(02)27820948,3883,1060,2020/09/15 21:44:46
5901120139,裕成藥局,臺北市南港區玉成街１６６巷１３號,台北市南港區玉成街166巷13號,25.0443911,121.5834587,(02)27851227,1278,1410,2020/09/15 21:44:46
5901120175,新錦安藥局,臺北市南港區南港路３段３４號,台北市南港區南港路3段34號,25.0543244,121.5921699,(02)27825218,3485,1207,2020/09/15 21:44:46
5901120184,仁泰藥局,臺北市南港區同德路２８號,台北市南港區同德路28號,25.0450835,121.5841059,(02)27855464,1217,1111,2020/09/15 21:44:46
5901120308,加欣藥局,臺北市南港區南港路２段２６號,台北市南港區南港路2段26號,25.0543258,121.6055431,(02)27836222,3388,0,2020/09/15 21:44:46
5901121421,祥安藥局,臺北市南港區中坡南路２５號,台北市南港區中坡南路25號,25.0433332,121.5831588,(02)26547322,3428,625,2020/09/15 21:44:46
5901121449,麗康藥局,臺北市南港區同德路５１號,台北市南港區同德路51號,25.0456657,121.5846901,(02)26515236,3884,985,2020/09/15 21:44:46
5901121501,親親藥局,臺北市南港區玉成街１４０巷７號１樓,台北市南港區玉成街140巷7號1樓,25.0446909,121.583186,(02)26537635,729,1070,2020/09/15 21:44:46
5901121574,上丞藥師藥局,臺北市南港區成福路１０號１樓,台北市南港區成福路10號1樓,25.0455563,121.5859404,(02)26535589,3562,1047,2020/09/15 21:44:46
5901121583,健園藥局,臺北市南港區研究院路１段１９號１樓,台北市南港區研究院路1段19號1樓,25.054022,121.616633,(02)27851567,3587,1455,2020/09/15 21:44:46
5901121592,忠孝藥局,臺北市南港區成福路１６號,台北市南港區成福路16號,25.0455763,121.5860181,(02)27862829,2043,770,2020/09/15 21:44:46
5901121618,新東發藥局,臺北市南港區成福路１９８號,台北市南港區成福路198號,25.040905,121.588232,(02)27855190,4217,1207,2020/09/15 21:44:46
5901121627,富康活力藥局,臺北市南港區研究院路１段１０１巷８號,台北市南港區研究院路1段101巷8號,25.0518294,121.6165191,(02)27828810,1952,200,2020/09/15 21:44:46
5901121672,亞博藥師藥局,臺北市南港區興華路８１號,台北市南港區興華路81號,25.0554802,121.6060151,(02)27838090,2387,0,2020/09/15 21:44:46
5901121725,佳龍藥局,臺北市南港區研究院路２段８０號,台北市南港區研究院路2段80號,25.0453692,121.615197,(02)27885951,1890,0,2020/09/15 21:44:46
5901121734,湳港藥局,臺北市南港區研究院路１段１０１巷１２號,台北市南港區研究院路1段101巷12號,25.0517736,121.6166635,(02)27892200,2459,0,2020/09/15 21:44:46
5901121823,儀安健保藥局,臺北市南港區同德路７４號,台北市南港區同德路74號,25.045681,121.5854049,(02)27859893,5863,811,2020/09/15 21:44:46
5901121850,健涵藥局,臺北市南港區舊莊街１段１４７號,台北市南港區舊莊街1段147號,25.0399061,121.6204672,(02)27837285,9039,1250,2020/09/15 21:44:46
5901121869,南港藥局,臺北市南港區南港路一段１６６號,台北市南港區南港路一段166號,25.0554186,121.6117481,(02)27829137,5863,1085,2020/09/15 21:44:46
5901121896,順翔藥局,臺北市南港區研究院路２段１７０號,台北市南港區研究院路2段170號,25.0378153,121.61682,(02)27824332,170,1113,2020/09/15 21:44:46
5901121903,景星藥局,臺北市南港區南港路３段２６號,台北市南港區南港路3段26號,25.0543537,121.5924021,(02)27838816,2634,900,2020/09/15 21:44:46
5901121912,成恩藥局,臺北市南港區成福路２３號,台北市南港區成福路23號,25.0447502,121.5867636,(02)27856602,428,952,2020/09/15 21:44:46
5901121930,小藥師健保藥局,臺北市南港區福德街３２０之１號,台北市南港區福德街320之1號,25.0394797,121.5878574,(02)27867002,4419,1000,2020/09/15 21:44:46
5901121958,心亮藥局,臺北市南港區玉成街６６之７號,台北市南港區玉成街66之7號,25.0467144,121.5821202,(02)27881677,776,258,2020/09/15 21:44:46
5901121985,勝安藥局,臺北市南港區舊莊街１段１６５號,台北市南港區舊莊街1段165號,25.0395122,121.6211262,(02)27828450,852,1838,2020/09/15 21:44:46
5901122035,成福大藥局,臺北市南港區成福路８號,臺北市南港區成福路8號,25.0456085,121.5858996,(02)27859221,1186,696,2020/09/15 21:44:46
5901122044,心心藥局,臺北市南港區研究院路２段７６號,臺北市南港區研究院路2段76號,25.0454965,121.6151299,(02)27862586,2418,17,2020/09/15 21:44:46
5901150011,南風藥局,臺北市士林區美崙街１９號１樓,台北市士林區美崙街19號1樓,25.0971655,121.5233108,(02)28320375,4343,1211,2020/09/15 21:44:46
5901150057,菁安藥局,臺北市士林區美侖街１３號１樓,台北市士林區美侖街13號1樓,25.0971449,121.5234101,(02)28323951,2925,760,2020/09/15 21:44:46
5901150128,新興藥局,臺北市士林區德行西路１１７號,台北市士林區德行西路117號,25.1039695,121.5206006,(02)28362643,3519,600,2020/09/15 21:44:46
5901150146,坤成泰藥局,臺北市士林區大南路４１２號,台北市士林區大南路412號,25.089957,121.516184,(02)28813903,4760,1121,2020/09/15 21:44:46
5901150235,杏城藥局,臺北市士林區天母東路２４號,台北市士林區天母東路24號,25.1176189,121.532453,(02)28725144,2709,860,2020/09/15 21:44:46
5901150244,佳赫藥局,臺北市士林區文昌路４４號,台北市士林區文昌路44號,25.095632,121.521552,(02)28367202,3055,770,2020/09/15 21:44:46
5901150253,文祥藥局,臺北市士林區光華路２６巷２弄２號,台北市士林區光華路26巷2弄2號,25.1375056,121.5420874,(02)28623487,111,923,2020/09/15 21:44:46
5901150271,建芳藥局,臺北市士林區德行東路１４８號,台北市士林區德行東路148號,25.1080076,121.5295718,(02)28357172,4025,1185,2020/09/15 21:44:46
5901150280,慈航藥局,臺北市士林區文林路４４１號,台北市士林區文林路441號,25.0948515,121.5245433,(02)28815988,0,400,2020/09/15 21:44:46
5901150342,士林三安藥局,臺北市士林區大南路１１號,台北市士林區大南路11號,25.0889764,121.5259968,(02)28812631,2331,1240,2020/09/15 21:44:46
5901150397,博惠藥局,臺北市士林區華榮街１６號,台北巿士林區華榮街16號,25.0955096,121.5236009,(02)28320379,4041,1106,2020/09/15 21:44:46
5901150459,有德堂大藥局,臺北市士林區中山北路６段２２７號,台北市士林區中山北路6段227號,25.1088499,121.52509,(02)28318387,4212,1410,2020/09/15 21:44:46
5901150468,太安藥局,臺北市士林區延平北路５段１５７號,台北市士林區延平北路5段157號,25.082512,121.5101191,(02)28111468,2452,1068,2020/09/15 21:44:46
5901150511,三原藥局,臺北市士林區延平北路５段２９３號,台北市士林區延平北路5段293號,25.085893,121.5094168,(02)28111888,4023,0,2020/09/15 21:44:46
5901150548,田倉藥局,臺北市士林區士東路１２４號,台北市士林區士東路124號,25.1121679,121.5301466,(02)88662188,230,0,2020/09/15 21:44:46
5901150575,日康藥局,臺北市士林區士東路１２號１樓,台北市士林區士東路12號1樓,25.1117534,121.5266569,(02)28358558,815,1087,2020/09/15 21:44:46
5901150593,安寧藥局,臺北市士林區劍潭路９１號,台北市士林區劍潭路91號,25.0829008,121.5198991,(02)28803319,333,1380,2020/09/15 21:44:46
5901150682,加赫藥局,臺北市士林區文昌路７６號,台北市士林區文昌路76號,25.0964413,121.5212322,(02)28336362,1885,1493,2020/09/15 21:44:46
5901150762,麗森藥局,臺北市士林區天母西路５１號,台北市士林區天母西路51號,25.1185921,121.5268982,(02)28714152,4090,30,2020/09/15 21:44:46
5901150771,天母大和藥師藥局,臺北市士林區德行東路１８９－１號１樓,台北市士林區德行東路189-1號1樓,25.108976,121.5316503,(02)28310142,5302,1129,2020/09/15 21:44:46
5901151956,康鈺藥局,臺北市士林區德行東路１３３號１樓,台北市士林區德行東路133號1樓,25.1081063,121.529197,(02)28313915,3500,4050,2020/09/15 21:44:46
5901152024,今欣藥局,臺北市士林區天母西路４１巷９號１樓,台北市士林區天母西路41巷9號1樓,25.1193328,121.527306,(02)28713129,4226,0,2020/09/15 21:44:46
5901152079,資生堂藥局,臺北市士林區承德路４段４０巷１７號１Ｆ,台北市士林區承德路4段40巷17號1F,25.081087,121.522046,(02)28857588,532,1020,2020/09/15 21:44:46
5901152122,社子全民藥局,臺北市士林區延平北路５段１２０號,台北市士林區延平北路5段120號,25.0816813,121.5106305,(02)28127412,4149,1100,2020/09/15 21:44:46
5901152131,康華藥局,臺北市士林區中山北路７段１４巷２號２樓,台北市士林區中山北路7段14巷2號2樓,25.118663,121.5311633,(02)28743223,1863,1809,2020/09/15 21:44:46
5901152293,安泰藥師藥局,臺北市士林區延平北路六段８３號（實際使用：１、２樓）,台北市士林區延平北路六段83號(實際使用:1、2樓),25.0884306,121.5086831,(02)28166977,2422,0,2020/09/15 21:44:46
5901152453,家赫藥局,臺北市士林區忠義街８０號１樓,台北市士林區忠義街80號1樓,25.1061428,121.5316765,(02)28346453,3183,1387,2020/09/15 21:44:46
5901152471,得安藥局,臺北市士林區文林路１４０號,台北市士林區文林路140號,25.0887424,121.5266357,(02)28836336,7,4026,2020/09/15 21:44:46
5901152604,達揚藥局,臺北市士林區社正路３６號１樓,台北市士林區社正路36號1樓,25.0887539,121.509913,(02)88115559,2001,0,2020/09/15 21:44:46
5901152659,和樹藥局,臺北市士林區後港街４５巷１號１樓,台北市士林區後港街45巷1號1樓,25.084433,121.522772,(02)28821188,2637,870,2020/09/15 21:44:46
5901152686,三光藥局,臺北市士林區延平北路５段３２０號１樓,台北市士林區延平北路5段320號1樓,25.0863015,121.5096065,(02)28123786,2367,1670,2020/09/15 21:44:46
5901152720,博信藥局,臺北市士林區延平北路６段６１號,台北市士林區延平北路6段61號,25.0879449,121.5087625,(02)28128295,456,0,2020/09/15 21:44:46
5901152739,芳圓藥局,臺北市士林區社子街２６－１號,台北市士林區社子街26-1號,25.0875189,121.5079284,(02)28168666,643,0,2020/09/15 21:44:46
5901152748,柏雅大藥局,臺北市士林區德行西路６４號,台北市士林區德行西路64號,25.1050174,121.5227046,(02)88664398,4480,0,2020/09/15 21:44:46
5901152793,信光藥局,臺北市士林區文昌路６８號,台北市士林區文昌路68號,25.096194,121.521371,(02)28366277,2978,1380,2020/09/15 21:44:46
5901152837,文昌大藥局,臺北市士林區文昌路７２號,台北市士林區文昌路72號,25.0963045,121.521286,(02)28376196,2583,700,2020/09/15 21:44:46
5901152873,幸福藥局,臺北市士林區德行東路１０９巷８號,台北市士林區德行東路109巷8號,25.1081481,121.5283871,(02)28346650,4194,820,2020/09/15 21:44:46
5901152882,天爵藥局,臺北市士林區中山北路６段４５０巷１號,台北市士林區中山北路6段450巷1號,25.1142317,121.5276519,(02)28733759,0,80,2020/09/15 21:44:46
5901152971,石川藥師藥局,臺北市士林區忠義街７０號,台北市士林區忠義街70號,25.1059959,121.5313903,(02)28385850,3457,970,2020/09/15 21:44:46
5901153058,誼安藥局,臺北市士林區通河街４２號,台北市士林區通河街42號,25.0804512,121.5214563,(02)28851899,2513,1142,2020/09/15 21:44:46
5901153101,聖賢藥局,臺北市士林區士商路５８號,台北市士林區士商路58號,25.09056,121.5200381,(02)28833046,4090,1110,2020/09/15 21:44:46
5901153110,美麗田藥局,臺北市士林區通河街７８號,台北市士林區通河街78號,25.0809379,121.5204744,(02)28855990,2806,1437,2020/09/15 21:44:46
5901153245,大東健保藥局,臺北市士林區大東路８６－４號,臺北市士林區大東路86-4號,25.0912987,121.5256894,(02)28834672,3105,2330,2020/09/15 21:44:46
5901153263,健揚藥局,臺北市士林區延平北路５段２５１號,台北市士林區延平北路5段251號,25.0848384,121.5096528,(02)28163698,3246,490,2020/09/15 21:44:46
5901153272,光榮藥局,臺北市士林區社中街１１８號,台北市士林區社中街118號,25.0898976,121.5103799,(02)28136060,4519,72,2020/09/15 21:44:46
5901153325,天母康甯健保藥局,臺北市士林區克強路８號,台北市士林區克強路8號,25.1089278,121.5245557,(02)28366631,4185,420,2020/09/15 21:44:46
5901153405,社正藥局,臺北市士林區社正路１２號,台北市士林區社正路12號,25.0885357,121.509311,(02)28118704,3345,1242,2020/09/15 21:44:46
5901153432,大南春天生活藥局,臺北市士林區大南路３１７、３１９號,台北市士林區大南路317、319號,25.0888786,121.5180056,(02)28882196,3066,1000,2020/09/15 21:44:46
5901153487,和謙藥局,臺北市士林區社中街３６２號,台北市士林區社中街362號,25.0925188,121.5041195,(02)28165678,1233,1160,2020/09/15 21:44:46
5901153496,躍獅忠誠藥局,臺北市士林區忠義街７０號,台北市士林區忠義街70號,25.1059959,121.5313903,(02)28387948,5346,1260,2020/09/15 21:44:46
5901153503,祥新藥局,臺北市士林區社子街６５號,台北市士林區社子街65號,25.087497,121.5067753,(02)28110906,2142,608,2020/09/15 21:44:46
5901153521,天母台安藥局,臺北市士林區天母西路３４號,台北市士林區天母西路34號,25.1183401,121.5262643,(02)28728017,2643,0,2020/09/15 21:44:46
5901153567,華齡春天生活藥局,臺北市士林區華齡街３６、３８號,台北市士林區華齡街36、38號,25.0836158,121.519487,(02)28882156,2651,1330,2020/09/15 21:44:46
5901153585,德行春天生活藥局,臺北市士林區德行東路７６號,台北市士林區德行東路76號,25.107299,121.5275184,(02)28380306,1911,838,2020/09/15 21:44:46
5901153610,家安健保藥局,臺北市士林區德行東路１０９巷１１９號,台北市士林區德行東路109巷119號,25.1115578,121.5287841,(02)28322182,1800,160,2020/09/15 21:44:46
5901153656,德行盛康藥局,臺北市士林區德行東路２０６之１號,台北市士林區德行東路206之1號,25.1088956,121.5320144,(02)28348756,2064,580,2020/09/15 21:44:46
5901153665,康佑藥局,臺北市士林區延平北路５段１７６號,台北市士林區延平北路5段176號,25.0830342,121.5103287,(02)28119981,3573,1000,2020/09/15 21:44:46
5901153674,愛佳藥局,臺北市士林區承德路４段２２２之１號,台北市士林區承德路4段222之1號,25.088437,121.521475,(02)28811199,2145,930,2020/09/15 21:44:46
5901153683,安奕藥局,臺北市士林區葫蘆街３０巷１２號,台北市士林區葫蘆街30巷12號,25.0803629,121.5099842,(02)28133289,1525,393,2020/09/15 21:44:46
5901153709,全予藥局,臺北市士林區德行東路２２１號,台北市士林區德行東路221號,25.1094328,121.5329255,(02)28386955,1080,1450,2020/09/15 21:44:46
5901153727,前港盛康藥局,臺北市士林區前港街２８號,台北市士林區前港街28號,25.0845866,121.5220768,(02)28831079,3732,1630,2020/09/15 21:44:46
5901153745,藥本家藥局,臺北市士林區中山北路７段１４巷２６號,台北市士林區中山北路7段14巷26號,25.118858,121.532786,(02)28766682,1621,1400,2020/09/15 21:44:46
5901153790,天母盛康藥局,臺北市士林區天母東路８巷８４號,台北市士林區天母東路8巷84號,25.1147188,121.5302951,(02)28720208,7073,810,2020/09/15 21:44:46
5901153807,中山盛康藥局,臺北市士林區中山北路７段１６２號,台北市士林區中山北路7段162號,25.1241626,121.5327148,(02)28771887,2538,890,2020/09/15 21:44:46
5901153816,士東台安藥局,臺北市士林區士東路８６之２號（實際使用：１樓）,台北市士林區士東路86之2號(實際使用:1樓),25.1120044,121.5288289,(02)28315667,3054,990,2020/09/15 21:44:46
5901153825,太和堂中西藥局,臺北市士林區大東路７４號（實際使用：１樓）,台北市士林區大東路74號(實際使用:1樓),25.0903464,121.5257822,(02)28814122,2841,1170,2020/09/15 21:44:46
5901153861,佩佩藥局,臺北市士林區中山北路６段１８２號,台北市士林區中山北路6段182號,25.1075459,121.5252722,(02)28382662,1331,540,2020/09/15 21:44:46
5901153889,新光維康藥局,臺北市士林區基河路２５０之３號（實際使用：１樓）,台北市士林區基河路250之3號(實際使用:1樓),25.0916882,121.5208094,(02)28801011,1104,1159,2020/09/15 21:44:46
5901153898,文林生活健保藥局,臺北市士林區文林路５６２號（實際使用：１樓）,臺北市士林區文林路562號(實際使用:1樓),25.0977327,121.5240432,(02)28381971,2700,1450,2020/09/15 21:44:46
5901153905,躍獅芝山藥局,臺北市士林區福華路１５４號（實際使用：１樓）,臺北市士林區福華路154號(實際使用:1樓),25.1035846,121.5227254,28365822,3848,909,2020/09/15 21:44:46
5901160044,石牌藥局,臺北市北投區石牌路１段４９號,台北市北投區石牌路1段49號,25.1127558,121.509425,(02)28214986,3711,1405,2020/09/15 21:44:46
5901160053,天蓮藥局,臺北市北投區石牌路１段１６６巷１１５號,台北市北投區石牌路1段166巷115號,25.1127558,121.509425,(02)28211824,2994,1244,2020/09/15 21:44:46
5901160062,丸三大藥局,臺北市北投區自強街１０５號,台北市北投區自強街105號,25.1108516,121.5152482,(02)28230637,1804,192,2020/09/15 21:44:46
5901160099,進春藥局,臺北市北投區明德路１５１號,台北市北投區明德路151號,25.110872,121.520648,(02)28216938,1498,4390,2020/09/15 21:44:46
5901160142,德昇藥局,臺北市北投區裕民二路２０號,台北市北投區裕民二路20號,25.1160142,121.5169443,(02)28217565,2435,1033,2020/09/15 21:44:46
5901160197,川秀藥局,臺北市北投區石牌路２段９９巷９號１樓,台北市北投區石牌路2段99巷9號1樓,25.1180382,121.5166281,(02)28270702,3483,1200,2020/09/15 21:44:46
5901160222,新祥藥局,臺北市北投區知行路２０８號－１,台北市北投區知行路208號-1,25.119359,121.466859,(02)28582551,4296,1173,2020/09/15 21:44:46
5901160277,建民藥局,臺北市北投區光明路１６１號,台北市北投區光明路161號,25.1353885,121.5026166,(02)28912339,5553,1290,2020/09/15 21:44:46
5901160286,昌源藥局,臺北市北投區中央北路４段４８５號,台北市北投區中央北路4段485號,25.1284409,121.4692463,(02)28928695,4181,788,2020/09/15 21:44:46
5901160400,世全藥局,臺北市北投區知行路２７３號,台北市北投區知行路273號,25.1213489,121.467172,(02)28585378,3534,1984,2020/09/15 21:44:46
5901160428,九福藥局,臺北市北投區公館路２３６號,台北市北投區公館路236號,25.126094,121.508028,(02)28953009,3727,360,2020/09/15 21:44:46
5901160517,弘安藥局,臺北市北投區懷德街３３號１樓,台北市北投區懷德街33號1樓,25.1121346,121.5193339,(02)28206390,882,1520,2020/09/15 21:44:46
5901160544,黎明藥局,臺北市北投區尊賢街２５３－１號,台北市北投區尊賢街253-1號,25.118107,121.5065404,(02)28223795,1886,600,2020/09/15 21:44:46
5901160562,名山藥局,臺北市北投區東陽街４７５號１樓,台北市北投區東陽街475號1樓,25.1123281,121.5199387,(02)28226101,2099,901,2020/09/15 21:44:46
5901160802,美康藥局,臺北市北投區明德路９０號１樓,台北市北投區明德路90號1樓,25.1093999,121.5196241,(02)28281176,5067,1377,2020/09/15 21:44:46
5901161890,良興藥局,臺北市北投區中和街２８６號,台北市北投區中和街286號,25.140482,121.500405,(02)28933360,4511,672,2020/09/15 21:44:46
5901162002,實踐藥局,臺北市北投區實踐街１３號,台北市北投區實踐街13號,25.1148748,121.5076831,(02)28276616,1487,1183,2020/09/15 21:44:46
5901162066,嘉禾大藥局,臺北市北投區中和街２６４號,台北市北投區中和街264號,25.1401449,121.5007475,(02)28984758,0,280,2020/09/15 21:44:46
5901162119,祐鄰藥局,臺北市北投區尊賢街２５０號,台北市北投區尊賢街250號,25.1170516,121.5072702,(02)28281232,1923,1260,2020/09/15 21:44:46
5901162173,小明藥局,臺北市北投區中央南路１段６９號２樓,台北市北投區中央南路1段69號2樓,25.131439,121.501356,(02)28928950,3222,260,2020/09/15 21:44:46
5901162182,祐民藥局,臺北市北投區中央南路１段２０９號１樓,台北市北投區中央南路1段209號1樓,25.128296,121.50135,(02)28975339,4406,830,2020/09/15 21:44:46
5901162306,上頤藥局,臺北市北投區中和街３２７號１樓,台北市北投區中和街327號1樓,25.140871,121.499751,(02)28981230,3975,2810,2020/09/15 21:44:46
5901162459,國泰藥師藥局,臺北市北投區自強街１３９－１號,台北市北投區自強街139-1號,25.111208,121.5160859,(02)28223995,4122,0,2020/09/15 21:44:46
5901162477,長宜藥局,臺北市北投區自強街１１２號,台北市北投區自強街112號,25.1107609,121.5154494,(02)28216605,3899,1250,2020/09/15 21:44:46
5901162780,康賢藥局,臺北市北投區西安街１段３５９號,台北市北投區西安街1段359號,25.1142483,121.5153328,(02)28219295,624,930,2020/09/15 21:44:46
5901162815,天康大藥局,臺北市北投區中央南路１段５７號,台北市北投區中央南路1段57號,25.1319251,121.501419,(02)28930168,0,110,2020/09/15 21:44:46
5901162833,維康藥局,臺北市北投區石牌路２段１９１．１９３號,台北市北投區石牌路2段191.193號,25.1197546,121.5201492,(02)28206343,3190,1580,2020/09/15 21:44:46
5901162879,杏嘉藥局,臺北市北投區清江路６８號,台北市北投區清江路68號,25.1304441,121.5016799,(02)28982340,2466,750,2020/09/15 21:44:46
5901163027,躍獅光明藥局,臺北市北投區光明路５１、５３號,台北市北投區光明路51、53號,25.1328887,121.4997292,(02)28915993,2502,600,2020/09/15 21:44:46
5901163107,小豬藥局,臺北市北投區石牌路１段１６６巷８３號,台北市北投區石牌路1段166巷83號,25.1127558,121.509425,(02)28217099,4486,680,2020/09/15 21:44:46
5901163152,石牌健康人生藥局,臺北市北投區石牌路２段１８７號,台北市北投區石牌路2段187號,25.1186831,121.5183464,(02)28225169,1466,800,2020/09/15 21:44:46
5901163214,鴻恩藥局,臺北市北投區中央南路１段１２９號,台北市北投區中央南路1段129號,25.1301392,121.5011855,(02)28926410,2500,194,2020/09/15 21:44:46
5901163241,昱仁藥局,臺北市北投區光明路１０２號２樓,台北市北投區光明路102號2樓,25.1330835,121.5012122,(02)28979050,8,5,2020/09/15 21:44:46
5901163250,關渡松藥局,臺北市北投區知行路２４７號,台北市北投區知行路247號,25.120804,121.467074,(02)28584824,2690,953,2020/09/15 21:44:46
5901163269,佳祈健保藥局,臺北市北投區明德路１４４號,台北市北投區明德路144號,25.1104447,121.5207572,(02)28232535,951,682,2020/09/15 21:44:46
5901163296,天禧大藥局,臺北市北投區實踐街３５號,台北市北投區實踐街35號,25.115285,121.5087174,(02)28213558,1449,1120,2020/09/15 21:44:46
5901163312,秝安藥局,臺北市北投區石牌路１段６９號（實際使用：１樓）,台北市北投區石牌路1段69號(實際使用:1樓),25.1127558,121.509425,(02)28215399,1032,822,2020/09/15 21:44:46
5901163330,萬信藥局,臺北市北投區知行路３０５號（實際使用１樓）,台北市北投區知行路305號(實際使用1樓),25.1221769,121.467166,(02)28583083,4275,170,2020/09/15 21:44:46
5901163376,北投春天藥局,臺北市北投區中央南路１段７６號,台北市北投區中央南路1段76號,25.1313935,121.5011103,(02)28916668,5402,770,2020/09/15 21:44:46
5901163394,致遠春天藥局,臺北市北投區致遠一路１段１３２號１、２樓,臺北市北投區致遠一路1段132號1、2樓,25.1105101,121.5148797,(02)28253258,615,450,2020/09/15 21:44:46
5901163410,尊賢藥局,臺北市北投區尊賢街２１２號,台北市北投區尊賢街212號,25.1155284,121.5080171,(02)28270505,2286,1170,2020/09/15 21:44:46
5901163429,致遠盛康藥局,臺北市北投區致遠二路１４１號,台北市北投區致遠二路141號,25.1173726,121.5128105,(02)28263580,2865,0,2020/09/15 21:44:46
5901163465,振生大藥局,臺北市北投區中央北路３段６１號,台北市北投區中央北路3段61號,25.1378872,121.4847963,(02)28977292,3760,730,2020/09/15 21:44:46
5901163483,天富大藥局,臺北市北投區石牌路２段１７１號１、２樓,台北市北投區石牌路2段171號1、2樓,25.1185207,121.5180514,(02)28225812,1935,1640,2020/09/15 21:44:46
5901163492,全家藥粧藥局,臺北市北投區光明路１６６－２號,台北市北投區光明路166-2號,25.1350758,121.5026983,(02)28988685,1007,240,2020/09/15 21:44:46
